stop_id,stop_name,stop_lat,stop_lon,stop_code,location_type,location_sub_type,parent_station,wheelchair_boarding
002133,"Örs vezér tere M+H, déli tárolótér",47.500366,19.135700,002133,,,,
002138,Kőbánya alsó vasútállomás,47.483139,19.127891,002138,,,,2
003002,Puskás Ferenc Stadion M,47.500368,19.103406,003002,,,,
003106,"Örs vezér tere M+H, északi tároló",47.505160,19.136637,003106,,,,
003118,"Óbuda, Bogdáni út",47.551471,19.041971,003118,,,,2
004716,"ÉD metró járműtelep,porta",47.469651,19.129090,004716,,,,2
004948,Metró ÉD járműtelep (kapu),47.465239,19.142612,004948,,,,
004952,Metró KNY járműtelep (kapu),47.502234,19.132179,004952,,,,
005924,Mill.FAV járműtelep (kapu),47.518788,19.093168,005924,,,,
006390,Cinkota kocsiszín (kapu),47.519365,19.216995,006390,,,,
007177,Csepel kocsiszín (kapu),47.421449,19.066161,007177,,,,
007675,Dunaharaszti külső kocsiszín (kapu),47.362643,19.088375,007675,,,,
007762,Szentendre kocsiszín (kapu),47.658768,19.072392,007762,,,,
007817,Márta utca,47.429184,18.929497,007817,,,,2
007877,Bíróság,47.519544,18.978060,007877,,,,1
007878,Bíróság,47.519418,18.978021,007878,,,,1
007879,"Római úti lakótelep, Varsa utca",47.570840,19.058436,007879,,,,1
007880,Bécsi út / Vörösvári út,47.547562,19.028729,007880,,,,1
007881,Váradi utca,47.543722,19.030125,007881,,,,1
007882,Váradi utca,47.542679,19.029953,007882,,,,1
007883,Perényi út,47.545800,19.029579,007883,,,,1
007884,Deák Ferenc tér M,47.497413,19.055158,007884,,,,1
007885,Dorottya utca (Vörösmarty tér M),47.497476,19.049623,007885,,,,1
007887,Mester utca / Ferenc körút,47.482310,19.068795,007887,,,,1
007888,Mester utca / Ferenc körút,47.482562,19.068477,007888,,,,1
007890,Mester utca / Ferenc körút,47.481671,19.068782,007890,,,,2
007897,Kelenföld vasútállomás M,47.464581,19.022964,007897,,,,1
007900,Maros utcai rendelőintézet,47.503724,19.022401,007900,,,,1
007902,Újpest-városkapu M,47.558551,19.078245,007902,,,,1
007913,526. sor,47.479274,19.211295,007913,,,,2
007914,526. sor,47.479282,19.211481,007914,,,,2
007923,Kele utca,47.431750,19.173783,007923,,,,1
007924,Ültetvény utca,47.396895,19.175423,007924,,,,2
007927,Ferihegy vasútállomás,47.438423,19.222716,007927,,,,1
007928,Ferihegy vasútállomás,47.437667,19.223377,007928,,,,1
007930,Savoyai Jenő tér (Törley tér),47.430333,19.036354,007930,,,,1
007931,Savoyai Jenő tér (Törley tér),47.430369,19.036792,007931,,,,1
007949,Kocsis Sándor út,47.574343,19.013009,007949,,,,1
007950,Keleti pályaudvar M,47.501104,19.082712,007950,,,,1
007967,Kelenföld vasútállomás M,47.465732,19.021875,007967,,,,1
007968,Mogyoród útja,47.570602,19.128267,007968,,,,1
007972,Hűvösvölgy,47.543009,18.964481,007972,,,,1
007974,Hűvösvölgy,47.542605,18.964773,007974,,,,1
007975,Hűvösvölgy,47.543243,18.964281,007975,,,,2
007976,Hűvösvölgy,47.543264,18.963995,007976,,,,1
007977,Hűvösvölgy,47.542968,18.964195,007977,,,,1
007978,Hűvösvölgy,47.542707,18.964355,007978,,,,1
007979,Vörösmarty utca M,47.507404,19.066482,007979,,,,1
007980,Vörösmarty utca M,47.507413,19.066787,007980,,,,1
007995,Jókai Mór utca,47.410696,19.020671,007995,,,,1
007996,Budatétény vasútállomás (Campona),47.405649,19.013780,007996,,,,1
007997,Budatétény vasútállomás (Campona),47.405972,19.014129,007997,,,,1
007998,Budatétény vasútállomás (Campona),47.405730,19.014323,007998,,,,1
007999,Budatétény vasútállomás (Campona),47.405702,19.014155,007999,,,,1
008003,Budagyöngye,47.515894,18.999506,008003,,,,2
008005,Móricz Zsigmond körtér M,47.477059,19.047540,008005,,,,1
008018,"Örs vezér tere M+H, új tárolótér",47.500933,19.135714,008018,,,,2
008021,Örs vezér tere M+H,47.501940,19.136228,008021,,,,1
008022,Örs vezér tere M+H,47.501517,19.136333,008022,,,,1
008023,Örs vezér tere M+H,47.501472,19.136134,008023,,,,1
008024,Örs vezér tere M+H,47.501148,19.136213,008024,,,,1
008025,Örs vezér tere M+H,47.501778,19.135922,008025,,,,1
008026,Örs vezér tere M+H,47.501355,19.136028,008026,,,,1
008028,Örs vezér tere M+H,47.501112,19.135882,008028,,,,1
008029,Örs vezér tere M+H,47.502111,19.135697,008029,,,,1
008030,Örs vezér tere M+H,47.501742,19.135604,008030,,,,1
008036,Kőbányai út 31.,47.487461,19.104252,008036,,,,1
008037,Kőbányai út 31.,47.487452,19.103721,008037,,,,1
008040,Tas vezér utca,47.478606,19.040827,008040,,,,2
008041,Tas vezér utca,47.478849,19.040827,008041,,,,1
008047,Lajosmizsei sorompó,47.450468,19.161410,008047,,,,2
008050,Liptó utca,47.486100,19.007031,008050,,,,2
008051,Liptó utca,47.486010,19.007071,008051,,,,2
008054,Mexikói út,47.519658,19.091078,008054,1,,,2
008055,Széchenyi fürdő,47.517483,19.080950,008055,1,,,2
008056,Hősök tere,47.514259,19.076845,008056,1,,,2
008057,Bajza utca,47.511333,19.072468,008057,1,,,2
008058,Kodály körönd,47.509232,19.069324,008058,1,,,2
008059,Vörösmarty utca,47.507214,19.066305,008059,1,,,2
008060,Oktogon,47.505058,19.063070,008060,1,,,2
008061,Opera,47.502254,19.058914,008061,1,,,2
008062,Bajcsy-Zsilinszky út,47.499828,19.055244,008062,1,,,2
008067,Szent Imre tér,47.430889,19.070300,008067,,,,1
008068,Vörösmarty tér,47.496802,19.050523,008068,1,,,2
008075,Kőbánya-Kispest,47.463402,19.149185,008075,1,,,2
008076,Határ út,47.465443,19.126757,008076,1,,,2
008077,Pöttyös utca,47.468548,19.116946,008077,1,,,2
008078,Ecseri út,47.470920,19.111329,008078,1,,,2
008082,Népliget,47.475441,19.098808,008082,1,,,2
008083,Nagyvárad tér,47.478943,19.089796,008083,1,,,2
008084,Semmelweis Klinikák,47.482834,19.079176,008084,1,,,2
008085,Corvin-negyed,47.485786,19.070152,008085,1,,,2
008086,Széll Kálmán tér M,47.507313,19.026381,008086,,,,1
008087,Fény utcai piac,47.508464,19.023646,008087,,,,1
008090,Móricz Zsigmond körtér M,47.477256,19.048786,008090,,,,1
008093,Dél-pesti autóbuszgarázs,47.426707,19.161776,008093,,,,1
008094,Dél-pesti autóbuszgarázs,47.426160,19.160940,008094,,,,1
008095,Nagykőrösi út,47.425255,19.157029,008095,,,,2
008096,Nagykőrösi út,47.425183,19.157506,008096,,,,2
008098,Szabina út,47.436409,19.013419,008098,,,,1
008099,Pék utca,47.442142,19.018436,008099,,,,1
008100,Pék utca,47.442188,19.018635,008100,,,,2
008101,Rózsavölgy felső,47.441163,19.022295,008101,,,,1
008102,Rózsavölgy felső,47.441217,19.022388,008102,,,,1
008103,Rózsavölgy alsó,47.438304,19.030344,008103,,,,1
008104,Rózsavölgy alsó,47.438304,19.030012,008104,,,,1
008106,Vihar utca,47.434282,19.035651,008106,,,,1
008109,Damjanich utca,47.402527,18.991053,008109,,,,1
008110,Barosstelep vasútállomás,47.399613,18.990911,008110,,,,1
008111,Barackos út / Angeli utca,47.402248,18.974427,008111,,,,1
008112,Szakiskola utca,47.404920,18.975841,008112,,,,2
008113,Szilvafa utca,47.405184,18.982160,008113,,,,2
008114,Mátyás király utca,47.404326,18.990746,008114,,,,2
008115,Szebeni utca,47.430356,19.016021,008115,,,,1
008116,Szebeni utca,47.430177,19.016910,008116,,,,1
008119,Mátra utca,47.400093,18.997693,008119,,,,2
008120,Budatétény vasútállomás (Campona),47.405739,19.013846,008120,,,,1
008124,Zöldike utca,47.430715,19.012800,008124,,,,1
008125,Zöldike utca,47.431205,19.012359,008125,,,,1
008126,Hír utca,47.432864,19.011526,008126,,,,1
008127,Hír utca,47.432882,19.011420,008127,,,,1
008128,Ady Endre út,47.435802,19.036578,008128,,,,2
008129,Kálvin tér,47.489693,19.061707,008129,1,,,2
008130,Ferenciek tere,47.493172,19.055920,008130,1,,,2
008132,Puskás Ferenc Stadion M,47.501220,19.107704,008132,,,,1
008136,Arany János utca,47.503063,19.054531,008136,1,,,2
008137,Nyugati pályaudvar,47.510571,19.056072,008137,1,,,2
008138,Lehel tér,47.517410,19.060192,008138,1,,,2
008139,Dózsa György út,47.524653,19.063321,008139,1,,,2
008141,Göncz Árpád városközpont,47.532719,19.066755,008141,1,,,2
008146,Vajda Péter utca,47.481389,19.103174,008146,,,,1
008147,Vajda Péter utca,47.481770,19.103619,008147,,,,1
008148,Kőbányai út / Könyves Kálmán körút,47.485742,19.107077,008148,,,,1
008149,Kőbányai út / Könyves Kálmán körút,47.486236,19.107515,008149,,,,1
008150,Zsil utca,47.482940,19.062984,008150,,,,2
008152,Mester utca / Könyves Kálmán körút,47.469596,19.083728,008152,,,,1
008153,Mester utca / Könyves Kálmán körút,47.469723,19.084482,008153,,,,1
008154,Boráros tér H (Közraktár utca),47.481222,19.065345,008154,,,,1
008155,Közvágóhíd H,47.468737,19.072756,008155,,,,1
008156,Új köztemető,47.473586,19.178326,008156,,,,1
008159,Forgách utca,47.539383,19.069597,008159,1,,,2
008162,Gyöngyösi utca,47.548691,19.073233,008162,1,,,2
008163,Újpest-városkapu,47.558926,19.079229,008163,1,,,2
008164,Örs vezér tere M+H,47.501382,19.136585,008164,,,,1
008165,Örs vezér tere M+H,47.501849,19.136467,008165,,,,1
008168,I. utca,47.400994,19.002739,008168,,,,1
008169,I. utca,47.400904,19.003494,008169,,,,1
008170,Angeli utca / Nagytétényi út,47.390622,18.981000,008170,,,,1
008175,Népliget M,47.475806,19.100180,008175,,,,2
008181,Cinkotai autóbuszgarázs,47.498562,19.237779,008181,,,,2
008186,Újpest-központ,47.560429,19.089916,008186,1,,,2
008206,Mexikói út M,47.519261,19.091048,008206,,,,1
008209,Nagy Lajos király útja / Czobor utca,47.522170,19.102815,008209,,,,1
008218,Széchenyi István tér,47.498915,19.047062,008218,,,,2
008222,Örs vezér tere M+H,47.503684,19.136443,008222,,,,1
008238,Széchenyi István tér,47.500543,19.046690,008238,,,,1
008239,Müpa - Nemzeti Színház H,47.471165,19.073129,008239,,,,1
008240,Müpa - Nemzeti Színház H,47.471354,19.073301,008240,,,,1
008241,Szőnyi út,47.526625,19.096220,008241,,,,1
008242,Teleki Blanka utca,47.523865,19.093761,008242,,,,1
008245,Kolozsvár utcai piac,47.536842,19.114916,008245,,,,1
008246,Rákospalotai köztemető,47.551236,19.136137,008246,,,,1
008260,Nagybányai út,47.528503,18.996288,008260,,,,1
008261,Nagybányai út,47.528368,18.996467,008261,,,,1
008262,Hidegkuti Nándor Stadion,47.490690,19.108910,008262,,,,1
008265,Közvágóhíd H,47.468737,19.073486,008265,,,,1
008267,Szentlőrinci út,47.424625,19.157703,008267,,,,1
008269,Delej utca,47.484694,19.096209,008269,,,,1
008270,Delej utca,47.484460,19.096407,008270,,,,1
008271,Szentendre,47.661045,19.075578,008271,1,,,2
008273,Beöthy utca,47.460670,19.081820,008273,1,,,2
008275,Timót utca,47.447949,19.090447,008275,1,,,2
008280,Infopark (Pázmány Péter sétány),47.469242,19.064333,008280,,,,1
008283,Óceán-árok utca,47.589986,19.100345,008283,,,,1
008284,Óceán-árok utca,47.590345,19.101781,008284,,,,1
008286,Népliget M,47.476294,19.099288,008286,,,,1
008287,Népliget M,47.476140,19.098735,008287,,,,1
008289,Szilágyi utca,47.570877,19.111330,008289,,,,1
008317,Bartók Béla utca,47.433275,18.919546,008317,,,,1
008318,Raktárváros,47.441443,18.938007,008318,,,,1
008319,Raktárváros,47.441434,18.938378,008319,,,,1
008322,Harangláb,47.431919,18.914048,008322,,,,1
008323,Károlyi utca,47.437730,18.899544,008323,,,,2
008324,Tükörhegy,47.436368,18.927095,008324,,,,1
008325,Tükörhegy,47.436170,18.926976,008325,,,,1
008326,Ady Endre utca,47.435045,18.906261,008326,,,,1
008328,Törökbálint Sportközpont,47.440072,18.895693,008328,,,,1
008329,Törökbálint Sportközpont,47.440269,18.895215,008329,,,,1
008330,Határ utca,47.445251,18.894299,008330,,,,1
008331,Határ utca,47.444924,18.894036,008331,,,,2
008332,Hosszúrét utca,47.446051,18.881264,008332,,,,2
008333,"Törökbálint, bevásárlóközpont",47.443242,18.887398,008333,,,,2
008336,Növény utca,47.402042,19.015774,008336,,,,1
008337,Növény utca,47.402114,19.015257,008337,,,,1
008339,Budaörsi lakótelep,47.455746,18.940232,008339,,,,1
008341,Templom tér,47.542265,19.130118,008341,,,,1
008344,Királyhágó tér,47.495421,19.018715,008344,,,,1
008345,Katona József utca,47.438530,18.906237,008345,,,,1
008353,Észak-Pesti Kórház,47.539329,19.122370,008353,,,,1
008360,Óbudai autóbuszgarázs,47.568290,19.026730,008360,,,,2
008365,Bécsi út / Vörösvári út,47.548489,19.028994,F00568,,merged,MERGED_F00568,1
008368,Szigetmajor,47.293738,18.964665,008368,1,,,2
008370,Egyetemi Tangazdaság,47.258643,18.949516,008370,1,,,2
008377,Nagykőrösi út / Határ út,47.456450,19.114660,008377,,,,2
008379,Kőbánya alsó vasútállomás,47.483886,19.127216,008379,,,,2
008381,Kőbánya alsó vasútállomás,47.484011,19.127574,008381,,,,2
008382,Örs vezér tere M+H,47.502448,19.136843,008382,,,,1
008383,Örs vezér tere M+H,47.502623,19.136654,008383,,,,1
008385,"Rákospalota, MÁV-telep",47.541308,19.121443,008385,,,,1
008399,Pestszentimre vasútállomás,47.404222,19.186489,008399,,,,1
008400,"Dunakeszi, Auchan áruház",47.608963,19.117347,008400,,,,2
008402,Kert sor,47.591122,19.045358,008402,,,,1
008403,Kert sor,47.591374,19.045384,008403,,,,1
008404,Csillaghegy H,47.584848,19.042059,008404,,,,1
008405,Csillaghegy H,47.584781,19.041862,008405,,,,1
008406,Forrásliget lakópark,47.581093,19.037502,008406,,,,1
008407,Forrásliget lakópark,47.581363,19.037795,008407,,,,1
008408,Ürömhegyi lejtő,47.577513,19.032133,008408,,,,2
008409,Ürömhegyi lejtő,47.577621,19.032040,008409,,,,2
008410,Aranyhegyi lejtő,47.572737,19.030301,008410,,,,1
008411,Aranyhegyi lejtő,47.572602,19.030088,008411,,,,1
008412,Bécsi út / Vörösvári út,47.548471,19.029180,008412,,,,1
008426,"Káposztásmegyer, Szilas-patak",47.577405,19.114927,008426,,,,2
008428,"Budakalász, Budai út",47.617063,19.051534,008428,,,,2
008429,"Budakalász, Budai út",47.616729,19.051767,008429,,,,1
008430,"Budakalász, Lenfonó H",47.620304,19.046374,008430,,,,1
008431,"Budakalász, Lenfonó H",47.621800,19.045662,008431,,,,1
008432,Szentistvántelep H,47.628444,19.043367,008432,,,,2
008433,Szentistvántelep H,47.627055,19.043879,008433,,,,2
008434,Pomáz H,47.643897,19.030357,008434,,,,1
008435,Pomáz H,47.642594,19.031459,008435,,,,2
008436,"Szentendre, Papírgyár",47.649031,19.069532,008436,,,,1
008437,Papírgyár,47.647762,19.069061,008437,,,,1
008438,Egyetem,47.652306,19.071738,008438,,,,1
008439,Egyetem,47.652067,19.071331,008439,,,,1
008440,Gubacsi út / Határ út,47.443626,19.096848,008440,,,,1
008447,Dióskert,47.425630,18.911984,008447,,,,2
008455,Jászai Mari tér,47.512811,19.047938,008455,,,,2
008458,Tisza István tér,47.517230,19.107350,008458,,,,1
008459,Uzsoki Utcai Kórház,47.519858,19.103689,008459,,,,1
008460,Uzsoki Utcai Kórház,47.519615,19.103476,008460,,,,1
008461,Erzsébet királyné útja / Róna utca,47.521586,19.101301,008461,,,,1
008462,Bretzfeld utca,47.460536,18.945898,008462,,,,1
008469,Gubacsi út / Határ út,47.444418,19.096583,008469,,,,2
008471,Dél-pesti autóbuszgarázs,47.426556,19.160782,008471,,,,1
008472,Dél-pesti autóbuszgarázs,47.426744,19.161140,008472,,,,1
008479,Homokbánya utca,47.399559,18.941035,008479,,,,2
008480,Petőfi Sándor utca,47.402470,18.937784,008480,,,,1
008481,Soroksár felső H,47.409980,19.111405,008481,,,,1
008486,Csonka János tér,47.470070,19.044795,008486,,,,1
008490,Határ út M,47.464567,19.126152,008490,,merged,MERGED_008490,1
008491,Jászberényi út,47.485496,19.192619,008491,,,,2
008498,Aszódi utca,47.463484,19.100991,008498,,,,1
008499,Közterületfenntartó Zrt.,47.467861,19.106659,008499,,,,1
008500,Ecseri út M,47.470487,19.108771,008500,,,,2
008501,Ferencvárosi rendelőintézet,47.476984,19.075559,008501,,,,1
008519,Tímár utca H,47.533299,19.043582,008519,,,,1
008520,Szentlélek tér H,47.539361,19.047061,008520,,,,2
008521,Serfőző utca,47.538309,19.046968,008521,,,,1
008535,Cinkotai autóbuszgarázs,47.498194,19.237472,008535,,,,1
008544,Szépvölgyi út H,47.527615,19.040037,008544,,,,1
008545,Puskás Ferenc Stadion M,47.500105,19.107013,008545,,,008875,1
008548,"Gyál, Bem József utca",47.372917,19.216769,008548,,,,1
008549,Kisfaludy Sándor utca,47.375008,19.213611,008549,,,,2
008550,Toldi Miklós utca,47.377334,19.210016,008550,,,,2
008551,Bacsó Béla utca,47.379533,19.206672,008551,,,,1
008552,Erdősor utca,47.383056,19.201876,008552,,,,2
008553,Bajcsy-Zsilinszky utca,47.385634,19.204439,008553,,,,2
008559,Korompai utca,47.484860,19.012485,008559,,,,1
008560,Korompai utca,47.484789,19.012843,008560,,,,1
008567,Gazdagréti tér,47.473277,18.992780,008567,,,,1
008569,Cinkotai autóbuszgarázs,47.498051,19.236675,008569,,,,2
008575,Távíró utca,47.461082,19.119025,008575,,,,1
008577,Rákoshegy vasútállomás,47.467934,19.244806,008577,,,,1
008587,Gyáli út,47.456472,19.111009,008587,,,,2
008588,Gyáli út,47.456293,19.110359,008588,,,,2
008589,Gyáli út,47.466010,19.103474,008589,,,,1
008590,Szent Gellért tér - Műegyetem M,47.483337,19.053086,008590,,,,1
008591,Szent Gellért tér - Műegyetem M,47.483616,19.053537,008591,,,,1
008593,Móricz Zsigmond körtér M,47.476836,19.047188,008593,,,,1
008595,Hungaroring,47.579181,19.275357,008595,1,,,
008597,Sport utca,47.455951,18.948135,008597,,,,1
008598,Baross utca,47.460313,18.958511,008598,,,,1
008605,Kolosy tér,47.527543,19.036916,008605,,,,1
008617,Pillangó utca,47.501297,19.119883,008617,1,,,2
008618,Puskás Ferenc Stadion,47.500389,19.107113,008618,1,,,2
008619,Keleti pályaudvar,47.499798,19.082670,008619,1,,,2
008620,Blaha Lujza tér,47.496986,19.070333,008620,1,,,2
008621,Astoria,47.494331,19.060097,008621,1,,,2
008622,Deák Ferenc tér,47.497716,19.054300,008622,1,,,2
008623,Kossuth Lajos tér,47.505520,19.046619,008623,1,,,2
008624,Batthyány tér,47.506462,19.038890,008624,1,,,2
008625,Széll Kálmán tér,47.506943,19.024803,008625,1,,,2
008626,Déli pályaudvar,47.500191,19.024951,008626,1,,,2
008642,Székesdűlő,47.611694,19.105926,008642,,,,1
008643,Székesdűlő,47.610958,19.103571,008643,,,,1
008644,Vízművek,47.599469,19.092788,008644,,,,2
008645,Vízművek,47.600323,19.093374,008645,,,,2
008646,Áruházi bekötőút,47.386510,19.022630,008646,,,,1
008647,Áruházi bekötőút,47.386519,19.023121,008647,,,,1
008649,"Székesdűlő, ipartelep",47.615155,19.109268,008649,,,,2
008650,"Székesdűlő, ipartelep",47.614760,19.108789,008650,,,,2
008651,Auchan Sziget áruház,47.384361,19.025810,008651,,,,1
008652,Auchan Sziget áruház,47.384163,19.025969,008652,,,,1
008670,Auchan Liget,47.541205,19.247030,008670,,,,2
008681,Hidegkuti Nándor Stadion,47.490533,19.110469,008681,,,,2
008684,Albertfalva kitérő,47.452747,19.038524,008684,,,,1
008685,Albertfalva kitérő,47.452720,19.038922,008685,,,,1
008690,Budaörs vasútállomás,47.448184,18.964863,008690,1,,,2
008691,Angeli utca / Nagytétényi út,47.390942,18.981735,008691,1,,,2
008692,Felsőcsatári köz,47.458756,19.177096,008692,,,,1
008694,Köztelek utca,47.486933,19.067178,008694,,,,2
008697,Újpest-központ M,47.560724,19.090125,008697,,,,1
008702,Ferencvárosi rendelőintézet,47.477155,19.075785,008702,,,,2
008708,Vízművek lakótelep,47.597742,19.091577,008708,,,,2
008724,Albertirsai út,47.500874,19.116122,008724,,,,2
008725,Puskás Ferenc Stadion M,47.499864,19.104836,008725,,,,1
008731,Budagyöngye,47.516074,18.998922,008731,,,,2
008736,Dániel út,47.512852,18.995009,008736,,,,2
008737,Dániel út,47.512834,18.994743,008737,,,,1
008740,Újbuda-központ M,47.474654,19.046424,008740,,,,1
008750,Batthyány tér M+H,47.505696,19.039323,008750,,,,1
008754,Pestszentimre vasútállomás (Dózsa Gy.u.),47.403548,19.185706,008754,,,,2
008770,Puskás Ferenc Stadion M,47.499864,19.104507,008770,,,,2
008772,Pestszentlőrinc vasútállomás,47.454622,19.181767,008772,,,,1
008775,Ilonatelep H,47.525775,19.228634,008775,,,,1
008782,Blaha Lujza tér M,47.496844,19.069066,008782,,,,1
008785,Puskás Ferenc Stadion M,47.499934,19.105183,008785,,,,1
008788,Kőérberek,47.445299,18.999585,008788,,,,2
008789,Kőérberek,47.445218,19.000036,008789,,,,2
008793,Regényes utca,47.429395,19.020648,008793,,,,1
008801,Savoya Park,47.436522,19.039985,008801,,,,1
008802,Savoya Park,47.435847,19.042385,008802,,,,1
008822,"Budakalász, Auchan áruház",47.611510,19.062328,008822,1,,,2
008823,Szigetszentmárton-Szigetújfalu H,47.228749,18.946095,008823,1,,,2
008832,Szakorvosi rendelőintézet,47.443848,19.181104,008832,,,,1
008834,Szigetcsép H,47.270713,18.956612,008834,1,,,2
008835,Földváry utca,47.463385,19.083750,008835,1,,,2
008841,Íves út,47.592824,19.107979,008841,,,,1
008842,Íves út,47.592582,19.106650,008842,,,,1
008844,Egressy út / Vezér utca,47.519260,19.126312,008844,,,,1
008846,Méhecske utca,47.448009,18.947805,008846,,,,2
008847,Méhecske utca,47.447991,18.947991,008847,,,,2
008850,Mikszáth Kálmán utca,47.451147,19.176786,008850,,,,1
008863,Gőzmozdony utca,47.470028,19.157173,008863,,,,1
008864,Savoya Park,47.435991,19.041510,008864,,,,1
008865,Savoya Park,47.436324,19.041218,008865,,,,1
008873,Földváry utca,47.463133,19.083803,008873,1,,,2
008874,Timót utca,47.452167,19.091904,008874,1,,,2
008875,Puskás Ferenc Stadion M,47.500133,19.107035,008875,1,,,2
008893,Csepeli átjáró,47.436343,19.092559,008893,,,,2
008894,Vízisport utca,47.433933,19.091311,008894,,,,2
008895,Teremszeg utca,47.433006,19.092212,008895,,,,2
008896,Pesterzsébet vasútállomás,47.433409,19.096269,008896,,,,2
008898,Szakorvosi rendelő,47.440692,19.102002,008898,,,,2
008900,Göncz Árpád városközpont M,47.531877,19.066158,008900,,,,1
008903,Szentmihályi út,47.541348,19.151940,008903,,,,1
008904,Kétújfalu utca,47.419483,19.209137,008904,,,,1
008910,"Káposztásmegyer, Mogyoródi-patak",47.598312,19.121415,008910,,,,1
008911,Homoktövis iskola,47.597226,19.117132,008911,,,,1
008912,Hidegkuti Nándor Stadion,47.490255,19.110147,008912,,,,1
008914,Vágóhíd utca,47.473502,19.079577,008914,,,,1
008915,Jászberényi út / Maglódi út,47.490345,19.148417,008915,,,,1
008916,Kőbányai garázs,47.490630,19.114447,008916,,,,2
008917,Kőbányai garázs,47.490667,19.113836,008917,,,,2
008918,"Budatétény, benzinkút",47.430100,19.003628,008918,,,,2
008919,Pongrátz Gergely tér,47.509905,19.128276,008919,,,,1
008921,Dél-pesti autóbuszgarázs,47.426582,19.161021,008921,,,,2
008922,Gyula vezér út,47.409242,19.003434,008922,,,,2
008923,Kabai utca,47.495704,19.160464,008923,,,,1
008924,Kabai utca,47.495533,19.160424,008924,,,,1
008939,Békásmegyer H,47.598425,19.054240,008939,,,,1
008940,Békásmegyer H,47.598667,19.054107,008940,,,,1
008941,Váci út,47.561294,19.079376,008941,,,,1
008942,Örs vezér tere M+H (Kerepesi út),47.503207,19.137531,008942,,,,1
008943,"Budatétény, benzinkút",47.431018,19.004423,008943,,,,2
008944,Újpest-városkapu M (Váci út),47.556564,19.076623,008944,,,,1
008945,Újpest-városkapu M (Váci út),47.558092,19.076836,008945,,,,1
008946,Szénás utca,47.527548,19.181565,008946,,,,1
008947,Szlovák út,47.530956,19.189170,008947,,,,1
008948,Kucorgó tér,47.469348,19.295123,008948,,,,1
008949,Pestszentimre vasútáll. (Nagykőrösi út),47.403412,19.186620,008949,,,,1
008950,Pestszentimre vasútáll. (Nagykőrösi út),47.404303,19.185682,008950,,,,1
008951,Béke tér,47.430006,19.215624,008951,,,,2
008952,Terv utca,47.408000,19.001541,008952,,,,1
008953,Csillag utca,47.408474,19.119154,008953,,,,1
008954,Csillag utca,47.409562,19.118997,008954,,,,1
008955,Gombosszeg köz,47.413107,19.118352,008955,,,,1
008956,Gombosszeg köz,47.413574,19.118578,008956,,,,2
008957,Előd utca,47.418567,19.117379,008957,,,,2
008958,Alsó határút,47.416543,19.116568,008958,,,,2
008959,Templom utca 6.,47.408837,19.113563,008959,,,,1
008960,Gyáli-patak,47.394732,19.116579,008960,,,,1
008961,"Soroksár, Hősök tere H",47.399283,19.116413,008961,,,,1
008962,Szent István utca H,47.392547,19.115361,008962,,,,2
008963,Grassalkovich út,47.390521,19.118865,008963,,,,1
008964,Szent László utca / Tartsay utca,47.421259,19.127136,008964,,,,1
008965,Szent László utca / Tartsay utca,47.421196,19.126871,008965,,,,1
008967,Szentlőrinci úti lakótelep,47.416876,19.131290,008967,,,,1
008971,Gyula vezér út,47.409629,19.004123,008971,,,,1
009000,Kistarcsa H,47.545503,19.259839,009000,,,,2
009001,Kistarcsa H,47.545584,19.259693,009001,,,,2
009002,Kerepes H,47.552441,19.270507,009002,,,,2
009003,Kerepes H,47.551324,19.268897,009003,,,,2
009004,Szilasligeti elágazás,47.560201,19.283112,009004,,,,2
009005,"Kerepes, Szabadság útja",47.560809,19.282727,009005,,,,1
009006,Szilasligeti elágazás,47.560766,19.283700,009006,,,,2
009007,"Szilasliget, Posta",47.569550,19.272176,009007,,,,2
009008,"Szilasliget, Posta",47.569850,19.272388,009008,,,,2
009009,"Szilasliget, Wesselényi utca",47.573117,19.269227,009009,,,,2
009010,"Szilasliget, Wesselényi utca",47.572905,19.269251,009010,,,,2
009011,"Szilasliget, Szondi utca",47.575273,19.266059,009011,,,,2
009012,"Szilasliget, Szondi utca",47.575376,19.265659,009012,,,,2
009013,"Szilasliget, Kemping",47.578226,19.261133,009013,,,,2
009014,EGIS-telep (Szentjakab H),47.592911,19.284773,009014,,,,2
009015,EGIS-telep (Szentjakab H),47.592534,19.285513,009015,,,,2
009016,"Gödöllő, Szökőkút",47.599144,19.346673,009016,,,,1
009017,"Gödöllő, Szabadság tér H",47.599243,19.346771,009017,,,,2
009018,"Gödöllő, Szabadság tér H",47.598009,19.349108,009018,,,,2
009019,"Gödöllő, Palotakert H",47.598734,19.355678,009019,,,,2
009020,"Gödöllő, Palotakert H",47.598679,19.356116,009020,,,,2
009021,Gödöllő H,47.593416,19.357620,009021,,,,1
009022,Mogyoród H,47.595557,19.271513,009022,,,,2
009025,Zichy Jenő utca,47.505192,19.057853,009025,,,,1
009026,Zichy Jenő utca,47.505246,19.057588,009026,,,,1
009031,"Margit híd, budai hídfő H",47.514815,19.035801,009031,,,,1
009039,Csanády utca (Lehel tér M),47.515850,19.058891,009039,,,,1
009041,Haller utca / Soroksári út,47.475726,19.069363,009041,,,,1
009042,Haller utca / Soroksári út,47.475447,19.069562,009042,,,,1
009047,Homoktövis utca / Megyeri út,47.594692,19.113273,009047,,,,1
009065,"Solymár, Szarvas",47.596341,18.973637,009065,,,,2
009066,"Solymár, Szarvas",47.596135,18.974741,009066,,,,2
009074,Használtcikk piac,47.435510,19.145159,009074,,,,1
009085,Budaörs vasútállomás,47.448166,18.964870,009085,,,008690,1
009094,Petőfi Sándor utca,47.402451,18.937042,009094,,,,1
009095,Pacsirta utca,47.404562,18.933977,009095,,,,1
009096,Pacsirta utca,47.404616,18.933765,009096,,,,2
009097,Nóra utca,47.407239,18.930884,009097,,,,2
009098,Nóra utca,47.407275,18.930738,009098,,,,2
009099,Katinka utca,47.410428,18.926876,009099,,,,2
009100,Katinka utca,47.410123,18.927181,009100,,,,2
009101,Tátika utca,47.412860,18.930262,009101,,,,2
009102,Tátika utca,47.412824,18.929984,009102,,,,2
009103,Valéria utca,47.414113,18.932830,009103,,,,2
009104,Valéria utca,47.414086,18.932618,009104,,,,2
009105,"Diósd, Búzavirág utca",47.416567,18.934213,009105,,,,2
009119,Szentendre H,47.659618,19.074522,009119,,,,1
009137,Újmajori utca,47.471697,19.220067,009137,,,,1
009138,Csillagmotor köz,47.471020,19.221815,009138,,,,1
009139,Dedics Ferenc utca,47.469097,19.226094,009139,,,,1
009140,Ősrepülő utca,47.469563,19.227170,009140,,,,1
009145,Haller utca / Mester utca,47.475922,19.077827,009145,,,,1
009146,Vágóhíd utca,47.473628,19.079643,009146,,,,1
009147,Vörösmarty utca,47.419869,19.120349,009147,,,,1
009148,Szusza Ferenc Stadion,47.575692,19.083757,009148,,,,1
009153,Óbudai rendelőintézet,47.545359,19.033751,009153,,,,1
009154,Atlétikai stadion,47.572575,19.114429,009154,,,,2
009155,Atlétikai stadion,47.572180,19.114150,009155,,,,2
009160,Keleti pályaudvar M,47.499449,19.083401,009160,,,,1
009161,Keleti pályaudvar M,47.499431,19.084012,009161,,,,1
009162,Keleti pályaudvar M,47.499926,19.083216,009162,,,,1
009163,Keleti pályaudvar M,47.499926,19.083587,009163,,,,1
009166,Magdolna utca,47.492763,19.087670,009166,,,,1
009170,"Pomáz, Dózsa György utca",47.645570,19.027226,009170,,,,1
009171,"Pomáz, Dózsa György utca",47.645554,19.027001,009171,,,,1
009172,Piski utca / Bártfai utca,47.501188,19.258520,009172,,,,2
009174,Széll Kálmán tér M,47.507673,19.024894,009174,,,,1
009179,"Petőfi híd, budai hídfő",47.476798,19.058923,009179,,,,1
009192,Kacsóh Pongrác utca,47.396467,19.208697,009192,,,,2
009193,Kacsóh Pongrác utca,47.396853,19.208738,009193,,,,1
009194,Széchenyi utca / Ady Endre utca,47.389932,19.217935,009194,,,,1
009195,Széchenyi utca / Ady Endre utca,47.390177,19.217708,009195,,,,1
009196,Széchenyi utca / Vecsési út,47.381846,19.230727,009196,,,,1
009197,Bocskai István utca / Széchenyi utca,47.383397,19.228295,009197,,,,1
009198,Somogyi Béla utca / Széchenyi utca,47.386832,19.222956,009198,,,,1
009199,Mátyás király utca,47.394710,19.210533,009199,,,,1
009200,Mátyás király utca,47.394883,19.210398,009200,,,,1
009201,Tulipán utca,47.392574,19.213824,009201,,,,1
009202,Tulipán utca,47.392177,19.214604,009202,,,,1
009203,"Gyál, Deák Ferenc utca",47.385265,19.235533,009203,,,,1
009204,Árpád utca,47.388079,19.231106,009204,,,,1
009205,Dobó Katica utca / Deák Ferenc utca,47.389747,19.228502,009205,,,,1
009206,Táncsics Mihály utca,47.392099,19.224843,009206,,,,1
009207,Kossuth Lajos utca,47.391718,19.221172,009207,,,,1
009208,"Pestszentlőrinc, Szarvas csárda tér",47.441307,19.185114,009208,,,,1
009220,Móricz Zsigmond körtér M,47.477499,19.048349,009220,,,,1
009225,Noszlopy utca,47.471898,19.148435,009225,,,,1
009230,Deák Ferenc tér M,47.497638,19.053021,009230,,,,1
009234,Pestszentimre vasútállomás (Nemes utca),47.404518,19.187166,009234,,,,1
009238,Szent Korona utca,47.525735,19.169802,009238,,,,1
009239,Csömöri út,47.528031,19.167497,009239,,,,1
009240,Sasvár utca,47.518294,19.180653,009240,,,,2
009241,Margit utca,47.515113,19.185325,009241,,,,1
009243,Alsó határút,47.416184,19.116209,009243,,,,2
009289,Gergely utca,47.468754,19.154451,009289,,,,1
009290,Közvágóhíd H,47.466497,19.075739,009290,,,,1
009292,"Szigetszentmiklós, városháza",47.348602,19.044724,009292,,,,1
009295,Serfőző utca,47.539095,19.045373,009295,,,,1
009300,Népliget M,47.474611,19.097765,009300,,,,
009301,Gárdonyi Géza utca,47.405402,18.947780,009301,,,,1
009309,Deák Ferenc tér M,47.497449,19.055715,009309,,,,1
009311,"BILK, bekötőút",47.378957,19.129179,009311,,,,2
009312,MNB,47.376882,19.124303,009312,,,,2
009314,"BILK, DF épület",47.375229,19.120911,009314,,,,2
009315,MNB,47.376675,19.124382,009315,,,,2
009321,Keleti pályaudvar M,47.499926,19.084198,009321,,,,1
009322,Örs vezér tere M+H (Kerepesi út),47.503260,19.137956,009322,,,,1
009337,Orbánhegyi dűlő,47.386335,19.110172,009337,,,,1
009338,Orbánhegyi dűlő,47.386389,19.110490,009338,,,,1
009339,Szent István utca H,47.391055,19.114151,009339,,,,1
009349,Budaörsi repülőtér,47.447065,18.986709,009349,,,,2
009351,Kőérberek,47.446333,18.998537,009351,,,,1
009352,Kőérberek,47.446180,18.998775,009352,,,,1
009353,Tippan utca,47.447962,19.000789,009353,,,,1
009354,Tippan utca,47.447746,19.000378,009354,,,,1
009355,Régi vám (Kánai út),47.446389,19.003986,009355,,,,1
009356,Régi vám (Kánai út),47.446200,19.004052,009356,,,,1
009358,Millenniumtelep H,47.379529,19.104152,009358,,,,2
009359,Boráros tér H,47.479729,19.066486,009359,,,,1
009365,Zsil utca,47.482716,19.062997,009365,,,,1
009369,"Csepel, Horgásztanya",47.388344,19.103486,009369,,,,1
009373,Hunyadvár utca / Jókai Mór utca,47.508153,19.192136,009373,,,,2
009375,Szilas-patak,47.529297,19.185461,009375,,,,1
009376,"Újpalota, Nyírpalota út",47.547013,19.142015,009376,,,,1
009377,Jókai Mór utca (Rendőrség),47.510358,19.190456,009377,,,,1
009379,József utca,47.532080,19.155893,009379,,,,1
009381,Rózsa utca,47.515819,19.155767,009381,,,,1
009382,Jávorfa utca,47.525996,19.177844,009382,,,,1
009383,János utca,47.523555,19.172340,009383,,,,1
009412,Karolina út,47.473505,19.034394,009412,,,,1
009413,Ezredes utca,47.510038,19.021760,009413,,,,1
009415,Sárfű utca,47.550084,19.138128,009415,,,,1
009420,Honvédkórház,47.531561,19.070886,009420,,,,1
009421,Ezred utca,47.605951,19.097621,009421,,,,1
009422,Ezred utca,47.606849,19.098223,009422,,,,2
009425,Csonka János tér,47.470543,19.045296,009425,,,,1
009426,Zugló vasútállomás,47.511873,19.099618,009426,,,,1
009427,Kelenföldi autóbuszgarázs,47.473226,19.029552,009427,,,,1
009429,Keserűvíztelep (Bobpálya),47.454755,19.007519,009429,,,,2
009430,Keserűvíztelep (Bobpálya),47.453847,19.007547,009430,,,,2
009431,Régi vám,47.446768,19.006041,009431,,,,2
009438,"Budakeszi, Honfoglalás sétány",47.517751,18.923769,009438,,,,1
009439,Zichy Péter utca,47.515575,18.922359,009439,,,,1
009440,Zichy Péter utca,47.516133,18.922570,009440,,,,2
009442,Széchenyi utca (gimnázium),47.512067,18.928677,009442,,,,2
009443,Széchenyi utca (gimnázium),47.512028,18.927518,009443,,,,2
009445,Tatárka utca,47.433982,19.021176,009445,,,,1
009446,Botond utca,47.404076,18.996178,009446,,,,1
009447,Mátyás király utca,47.404443,18.991581,009447,,,,2
009448,Görgey utca,47.406773,18.991631,009448,,,,2
009449,Török utca,47.411737,18.989837,009449,,,,1
009451,Gyűszű utca,47.417266,19.022400,009451,,,,2
009452,Húr utca,47.416159,19.020426,009452,,,,2
009453,Dévény utca,47.415224,19.022189,009453,,,,2
009454,Wesselényi utca,47.415917,19.026059,009454,,,,2
009455,Ostor utca,47.416544,19.029864,009455,,,,1
009456,Római utca,47.417930,19.017589,009456,,,,2
009457,Római utca,47.417175,19.018319,009457,,,,2
009458,Hűség utca,47.421208,19.013469,009458,,,,1
009459,Hűség utca,47.420529,19.014023,009459,,,,2
009460,Komáromi út,47.424593,19.010866,009460,,,,2
009461,Komáromi út,47.424032,19.011122,009461,,,,1
009462,Tanító utca,47.435283,19.008714,009462,,,,1
009463,Tanító utca,47.435274,19.009762,009463,,,,2
009465,Plébánia utca,47.429730,19.032298,009465,,,,2
009466,Plébánia utca,47.429631,19.032245,009466,,,,1
009467,Galamb utca,47.432734,19.028520,009467,,,,1
009468,Galamb utca,47.432671,19.028467,009468,,,,1
009469,Alkotmány utca,47.433444,19.025921,009469,,,,1
009470,Alkotmány utca,47.433354,19.025948,009470,,,,1
009471,Széchenyi utca,47.418185,19.032578,009471,,,,2
009472,Promontor utca,47.418055,19.027015,009472,,,,1
009473,Széchenyi utca,47.418464,19.032657,009473,,,,2
009474,Komló utca,47.421339,19.035137,009474,,,,2
009475,Méhész utca,47.438572,19.034695,009475,,,,2
009478,Szent Lőrinc-telep,47.432106,19.172930,009478,,,,2
009479,Szent Lőrinc-telep,47.432106,19.173155,009479,,,,2
009480,Margó Tivadar utca,47.433274,19.177803,009480,,,,1
009481,Kerékgyártó utca,47.521341,19.105562,009481,,,,1
009482,Kucorgó tér,47.469059,19.295984,009482,,,,2
009483,Rákoscsaba vasútállomás,47.491097,19.281623,009483,,,,1
009484,Tura utca,47.489200,19.276864,009484,,,,1
009485,Rákoscsaba-Újtelep vasútállomás,47.488137,19.273290,009485,,,,1
009486,II. utca,47.486290,19.265546,009486,,,,2
009487,Rákosliget vasútállomás,47.486311,19.259071,009487,,,,1
009491,Füstifecske utca,47.478911,19.236966,009491,,,,1
009492,Füstifecske utca,47.478776,19.237124,009492,,,,1
009493,Uszoda,47.479619,19.232975,009493,,,,1
009494,"Újlak utca, lakótelep",47.482307,19.233674,009494,,,,1
009495,Rákospatak utca,47.531435,19.100660,009495,,,,1
009498,Csertő utca,47.511043,19.146053,009498,,,,1
009499,Csertő utca,47.511465,19.147169,009499,,,,1
009500,Körvasút sor,47.513665,19.151090,009500,,,,1
009501,Körvasút sor,47.514590,19.152804,009501,,,,1
009503,Kovácsi Kálmán tér,47.573138,19.121088,009503,,,,1
009504,Kovácsi Kálmán tér,47.573309,19.121115,009504,,,,1
009508,Orló utca,47.518280,19.007492,009508,,,,1
009509,Orló utca,47.518145,19.007399,009509,,,,1
009510,Gábor Áron utca / Pasaréti út,47.516184,19.004033,009510,,,,1
009511,Gábor Áron utca / Pasaréti út,47.516355,19.003967,009511,,,,1
009512,Endrődi Sándor utca,47.521143,19.011996,009512,,,,1
009513,Bimbó út / Gábor Áron utca,47.519325,19.008996,009513,,,,1
009514,Bimbó út / Gábor Áron utca,47.519964,19.010576,009514,,,,1
009515,Rákospalota-Újpest vasútállomás,47.566389,19.111644,009515,,,,1
009516,Rákospalota-Újpest vasútállomás,47.566191,19.111737,009516,,,,1
009520,Csörsz utca,47.490152,19.023509,009520,,,,1
009521,Csörsz utca,47.490008,19.023668,009521,,,,1
009522,MOM Kulturális Központ,47.490528,19.018519,009522,,,,1
009524,Albertfalva vasútállomás,47.441881,19.032202,009524,,,,2
009531,Ifjúság útja,47.501492,19.104004,009531,,,,2
009532,Puskás Ferenc Stadion M,47.500079,19.106565,009532,,,,2
009534,XIII. utca / Dózsa György út,47.411163,18.993654,009534,,,,2
009536,"Káposztásmegyer, Mogyoródi-patak",47.598690,19.121323,009536,,,,2
009537,Március 15. tér,47.491540,19.051322,009537,,,,1
009538,Irány utca,47.540469,19.109767,009538,,,,1
009539,Boglár utca,47.594701,19.060994,009539,,,,1
009540,Szilágyi Erzsébet fasor,47.515203,19.002149,009540,,,,1
009541,Ady Endre út,47.436278,19.035478,009541,,,,1
009543,513. utca,47.484291,19.230112,009543,,,,1
009544,Robogó utca,47.487235,19.270088,009544,,,,1
009546,Memento Park,47.425566,19.001432,009546,,,,1
009548,Tatárka utca,47.433883,19.021083,009548,,,,1
009549,Madárdomb köz,47.478076,19.241208,009549,,,,1
009550,Madárdomb köz,47.477987,19.241128,009550,,,,1
009551,Margó Tivadar utca,47.433123,19.176437,009551,,,,1
009554,"Óbuda, Bogdáni út",47.550028,19.041176,009554,,,,1
009555,Szilágyi utca,47.570571,19.112699,009555,,,,1
009557,Vécsey Károly utca / Nádor utca,47.571892,19.096021,009557,,,,1
009558,Szent János Kórház,47.509962,19.009919,009558,,,,1
009563,Mészkő utca,47.579213,19.034844,009563,,,,1
009564,Mészkő utca,47.579051,19.034127,009564,,,,1
009566,"Soroksár, Auchan áruház",47.417213,19.158245,009566,,,,1
009568,Sósmocsár út,47.414805,19.134083,009568,,,,1
009569,Thököly út,47.441995,19.180980,009569,,,,1
009570,Újbuda-központ M,47.474163,19.047050,009570,,,,1
009572,Bagaria utca,47.590199,19.083142,009572,,,,1
009573,Bagaria utca,47.590307,19.083674,009573,,,,1
009574,Ungvári utca,47.587474,19.082223,009574,,,,1
009575,Ungvári utca,47.587313,19.081890,009575,,,,1
009576,Rév utca,47.584794,19.081689,009576,,,,2
009577,Savoya Park,47.436603,19.039548,009577,,,,1
009578,Savoya Park,47.436656,19.039269,009578,,,,1
009581,Gábor Áron utca,47.514978,19.002123,009581,,,,1
009582,János tér,47.441996,19.102521,009582,,,,1
009584,Békásmegyer H,47.597444,19.055543,009584,,,,1
009586,Baross utca,47.436340,19.098763,009586,,,,1
009587,Gogol utca,47.520447,19.056980,009587,,,,1
009588,Kuruclesi út,47.518001,18.985232,009588,,,,1
009592,Kőbánya-Kispest M,47.464152,19.146197,009592,,,,1
009611,Hidegkuti Nándor Stadion,47.490210,19.109593,009611,,,,2
009625,Szigetcsép utca,47.464407,19.312701,009625,,,,1
009629,Batthyány tér M+H,47.505588,19.039284,009629,,,,1
009630,"Budakalász, Auchan áruház",47.611510,19.062341,009630,,,008822,1
009631,Gergely utca 80.,47.474051,19.144354,009631,,,,1
009632,Nagykőrösi út / Határ út,47.456381,19.114232,009632,,,,2
009634,Cinkotai autóbuszgarázs (kapu),47.498634,19.237646,009634,,,,
009636,Kelenföldi autóbuszgarázs (kapu),47.473264,19.029397,009636,,,,
009637,Óbudai autóbuszgarázs (Pomázi kapu),47.568220,19.027770,009637,,,,
009638,Kőbányai garázs (Salgótarjáni kapu),47.491008,19.114239,009638,,,,
009652,Széchenyi út,47.545721,19.112403,009652,,,,1
009659,Mélyfúró utca,47.577512,19.129774,009659,,,,1
009667,Újbuda-központ M,47.474064,19.048204,009667,,,,1
009675,Clark Ádám tér,47.497665,19.041541,009675,,,,1
009676,Clark Ádám tér,47.497359,19.041594,009676,,,,1
009684,"Rákoskeresztúr, városközpont",47.478941,19.256176,009684,,,,1
009685,Akácvirág utca (egészségház),47.477351,19.255241,009685,,,,1
009691,Flórián tér,47.539901,19.042054,009691,,,,1
009692,Szentlélek tér H,47.539937,19.046755,009692,,,,1
009693,Kolosy tér,47.527678,19.036823,009693,,,,2
009698,Székács utca,47.498370,19.015183,009698,,,,1
009699,Székács utca,47.498245,19.015329,009699,,,,1
009702,Magdolna utca,47.492988,19.087193,009702,,,,1
009704,Jászivány utca,47.495409,19.275378,009704,,,,1
009705,Tura utca / Diadal utca,47.494390,19.272268,009705,,,,1
009706,XVIII. utca,47.491598,19.259995,009706,,,,1
009707,Aranykút utca,47.493758,19.277998,009707,,,,1
009708,Rákoscsaba vasútállomás,47.491547,19.281890,009708,,,,1
009709,Újbuda-központ M,47.474406,19.045497,009709,,,,1
009715,Zodony utca,47.430331,19.099898,009715,,,,2
009716,Pesterzsébet vasútállomás,47.433454,19.095738,009716,,,,2
009717,Zamárdi utca,47.434256,19.093472,009717,,,,1
009718,Vízisport utca,47.434463,19.091352,009718,,,,1
009719,Csepeli átjáró,47.436351,19.093381,009719,,,,1
009728,Zsigmond utca,47.463981,19.318336,009728,,,,1
009729,Zsigmond utca,47.463973,19.317686,009729,,,,2
009730,Széll Kálmán tér M,47.506881,19.023541,009730,,,,1
009743,MOM Kulturális Központ,47.490349,19.019528,009743,,,,1
009747,"Ezred utca, lakótelep",47.609007,19.101441,009747,,,,1
009748,Európa Center,47.605157,19.103711,009748,,,,1
009753,Blaha Lujza tér M (Népszínház utca),47.495999,19.071283,009753,,,,2
009763,Zsófialiget H,47.548044,19.263894,009763,,,,2
009764,Zsófialiget H,47.547898,19.263369,009764,,,,2
009774,Jászberényi út / Maglódi út,47.489886,19.148828,009774,,,,1
011302,Farkas-erdő (Állatsziget),47.586742,19.103401,011302,,,,1
011313,Szent László utca,47.405823,18.999264,011313,,,,1
011316,Atlétikai stadion,47.572468,19.113937,011316,,,,2
011317,Atlétikai stadion,47.572108,19.113950,011317,,,,2
011319,Móricz Zsigmond körtér M,47.477527,19.048628,011319,,,,1
011320,Búza utca,47.553410,19.040272,011320,,,,1
011321,Búza utca,47.551863,19.039634,011321,,,,1
011322,"Óbuda, Bogdáni út",47.549830,19.041189,011322,,,,1
011325,Halászbástya (Schulek Frigyes lépcső),47.502240,19.035339,011325,,,,2
011327,Budaörsi Ipari és Technológiai Park,47.463310,18.894407,011327,,,,2
011495,Kék Golyó utca,47.497895,19.019895,011495,,,,1
011577,"Soroksár, központi raktárak",47.378703,19.130043,011577,,,,2
011582,Verseny utca,47.501778,19.088408,011582,,,,2
011589,Vág utca,47.540627,19.119400,011589,,,,2
011715,509. utca,47.484937,19.225470,011715,,,,1
011722,"Rákoskeresztúr, városközpont",47.479663,19.254959,011722,,,,1
011723,"Rákoskeresztúr, városközpont",47.479536,19.255542,011723,,,,1
011724,"Rákoskeresztúr, városközpont",47.479373,19.256098,011724,,,,1
011725,"Rákoskeresztúr, városközpont",47.479815,19.255331,011725,,,,1
011726,"Rákoskeresztúr, városközpont",47.479942,19.254761,011726,,,,1
011727,Rákospatak utca / Csömöri út,47.524636,19.117028,011727,,,,1
011732,Deák Ferenc tér M,47.499212,19.053658,011732,,,,1
011754,Rákospatak utca / Csömöri út,47.524275,19.117811,011754,,,,1
011762,Újpest-városkapu M,47.559063,19.078803,011762,,,,1
011765,Boráros tér H,47.479285,19.067812,011765,,,,2
011768,"Rákoscsaba-Újtelep, Tóalmás utca",47.499272,19.286768,011768,,,,2
011773,Keresztúri út,47.484637,19.227764,011773,,,,1
016725,Rózsaliget,47.466591,19.158440,016725,,,,2
016727,Újbuda-központ M,47.474649,19.046771,016727,,,,1
016729,Naphegy tér,47.493472,19.032796,016729,,,,1
016764,Kalotaszeg utca,47.458684,19.041056,016764,,,,1
016938,"Erzsébet királyné útja, aluljáró",47.517865,19.094459,016938,,,,1
019313,Rákoskert vasútállomás,47.457296,19.295147,019313,,,,1
019314,Schell Gyuláné tér,47.459805,19.299349,019314,,,,1
019316,Rákoscsaba vasútállomás,47.491050,19.282830,019316,,,,1
022005,Tölgy utca,47.416403,19.205417,022005,,,,1
022006,Szenes Iván tér,47.479946,19.095674,022006,,,,2
022814,Móricz Zsigmond körtér M,47.478192,19.044635,022814,,,,1
030328,"Soroksár, Hősök tere H",47.399367,19.115423,030328,,,,1
031884,"Nagykovácsi, Tisza István tér",47.575789,18.879511,031884,,,,1
036236,Szigetszentmiklós H,47.345454,19.048205,036236,,,,1
036678,Széll Kálmán tér M,47.506710,19.025240,036678,,,,1
037747,"Lakihegy, Cseresznyés utca",47.377332,19.007248,037747,,,,1
037748,"Lakihegy, Cseresznyés utca",47.376792,19.006348,037748,,,,1
038670,Kőbánya-Kispest M,47.462319,19.148576,038670,,,,1
038671,Kőbánya-Kispest M,47.462283,19.148324,038671,,,,1
038673,Kőbánya-Kispest M,47.462624,19.149068,038673,,,,1
038674,Kőbánya-Kispest M,47.462967,19.147663,038674,,,,1
038675,Kőbánya-Kispest M,47.463193,19.147318,038675,,,,1
038678,Kőbánya-Kispest M,47.463048,19.147901,038678,,,,1
038680,Kőbánya-Kispest M,47.462922,19.148405,038680,,,,1
038681,Kőbánya-Kispest M,47.462795,19.149055,038681,,,,1
038682,Kőbánya-Kispest M,47.462840,19.149201,038682,,,,1
038683,Kőbánya-Kispest M,47.462976,19.148644,038683,,,,1
038686,Kőbánya-Kispest M,47.463435,19.147345,038686,,,,1
038687,Kőbánya-Kispest M,47.463282,19.147981,038687,,,,1
038688,Kőbánya-Kispest M,47.463174,19.148379,038688,,,,1
038693,Kőbánya-Kispest M,47.462935,19.148914,038693,,,,1
038717,Deák Ferenc tér M,47.499032,19.054030,038717,,,,1
040520,"Újpalota, Erdőkerülő utca",47.539556,19.145141,040520,,,,1
040525,Hentes utca,47.462276,19.084570,040525,,,,1
040526,Hentes utca,47.462600,19.084411,040526,,,,1
040591,FESTO,47.564606,19.030822,040591,,,,1
040608,Zsivora park,47.509134,19.148798,040608,,,,1
040609,Szent Imre tér H,47.431780,19.067901,040609,,,,1
040612,Bányató utca,47.466279,19.165031,040612,,,,1
040760,Kálvin tér,47.489830,19.061280,040760,1,,,1
040789,Kerékgyártó utca,47.520990,19.106438,040789,,,,1
041071,Nagyvárad tér M,47.479202,19.088416,041071,,,,2
041092,Csepeli Kórház,47.424595,19.058701,041092,,,,1
041093,Duna-lejáró,47.428013,19.058927,041093,,,,2
041094,Színesfém utca,47.430513,19.064640,041094,,,,1
041095,Szent Imre tér H,47.432014,19.067358,041095,,,,1
041139,Mázsa utca,47.483115,19.122863,041139,,,,1
041140,Mázsa utca,47.482980,19.122823,041140,,,,1
041209,Boráros tér H,47.479297,19.066963,041209,,,,2
042797,Bányató utca,47.465391,19.162933,042797,,,,1
042933,Népliget M,47.475851,19.100552,042933,,,,1
042934,"Soroksár, BILK",47.378287,19.121299,042934,,,,2
043154,Dél-pesti autóbuszgarázs (kapu),47.426902,19.160697,043154,,,,
043171,"Erzsébet királyné útja, aluljáró",47.518252,19.094673,043171,,,,1
043176,Kőbánya-Kispest M,47.461995,19.149491,043176,,,,1
043191,Bosnyák tér,47.519332,19.112783,043191,,,,1
043192,Kisvárda utca,47.471587,19.282412,043192,,,,1
043193,Kisvárda utca,47.471324,19.283632,043193,,,,1
043331,Szentlőrinci úti lakótelep,47.417200,19.130774,043331,,,,2
043333,Szent Orbán tér,47.498503,19.008136,043333,,,,2
043341,György utca,47.530940,19.171561,043341,,,,1
043342,Illyés Gyula utca,47.559188,19.122464,043342,,,,1
043343,Csörsz utca,47.490620,19.024650,043343,,,,1
043481,"Káposztásmegyer, Aquaworld",47.599639,19.112654,043481,,,,1
043548,Csaba vezér tér,47.487256,19.286582,043548,,,,1
043554,Enying utca,47.475377,19.297911,043554,,,,2
043555,Sport tér,47.477046,19.295809,043555,,,,2
043556,Rés utca,47.480202,19.291870,043556,,,,2
043571,Dukát utca,47.408202,18.991007,043571,,,,1
043746,Kőbányai garázs (Pongrácz kapu),47.492390,19.119545,043746,,,,
043955,Óbudai autóbuszgarázs (Törökkő kapu),47.566890,19.031889,043955,,,,
044029,Fenyőgyöngye,47.540451,19.006603,044029,,,,2
044032,"Szigetszentmiklós, városháza",47.348053,19.044870,044032,,,,1
044033,József Attila utca,47.338022,19.039575,044033,,,,1
044034,József Attila utca,47.338114,19.038215,044034,,,,2
044076,Déli utca,47.423183,19.061152,044076,,,,1
044115,Pöttyös utca M,47.468428,19.116027,044115,,,,1
044125,Cinkota H,47.520013,19.220542,044125,,,,1
044126,Száva kocsiszín,47.466764,19.123039,044126,,,,1
044127,Száva kocsiszín,47.466395,19.123091,044127,,,,2
044128,Valéria tér,47.466143,19.115666,044128,,,,1
044129,Napfény utca,47.458570,19.114343,044129,,,,1
044130,Madzsar József utca / Pünkösdfürdő utca,47.595615,19.054238,044130,,,,1
044131,Madzsar József utca / Pünkösdfürdő utca,47.595552,19.054065,044131,,,,1
044135,Íves út,47.593086,19.107022,044135,,,,1
044178,Szent Gellért-templom,47.469313,19.025800,044178,,,,2
044192,Békásmegyer H,47.597795,19.053787,044192,,,,1
044301,Orczy tér (Baross kocsiszín),47.489477,19.090708,044301,,,,2
044368,Örs vezér tere,47.502847,19.135600,044368,1,,,2
044371,"Budakeszi, Tesco áruház",47.500234,18.916821,044371,,,,2
044372,"Solymár, Kerekhegy",47.581416,18.926389,044372,,,,2
044375,"Budaliget, Géza fejedelem útja",47.567575,18.936282,044375,,,,1
044380,Dózsa György tér,47.507193,18.922432,044380,,,,1
044381,Dózsa György tér,47.507040,18.922366,044381,,,,2
044382,"Budakeszi, Tiefenweg utca",47.503935,18.921006,044382,,,,1
044383,"Budakeszi, Tiefenweg utca",47.503557,18.921167,044383,,,,1
044388,"Soroksár, Auchan áruház",47.419788,19.155599,044388,,,,1
044511,"Solymár, PEMÜ",47.597409,18.928240,044511,,,,2
044557,"Újpest, Árpád út hajóállomás",47.562796,19.078314,044557,,,,1
044601,"Solymár, Auchan áruház",47.598851,18.962078,044601,,,,1
044602,"Solymár, temető",47.594948,18.940930,044602,,,,1
044603,"Solymár, temető",47.595001,18.940212,044603,,,,1
044637,Görögkatolikus templom,47.423117,19.078036,044637,,,,1
044638,Görögkatolikus templom,47.424034,19.077997,044638,,,,1
045755,Maros utca,47.418292,19.138131,045755,,,,1
045776,Szenes Iván tér,47.479730,19.095859,045776,,,,2
047670,Budakeszi temető,47.514029,18.923053,047670,,,,2
047806,Savoya Park,47.436081,19.041549,047806,,,,1
047875,Orczy tér (Baross kocsiszín),47.489544,19.090388,047875,,,,2
047985,Szőlőskert utca,47.502140,18.916538,047985,,,,2
048277,Kőbánya alsó vasútállomás,47.483130,19.127785,048277,,,,2
048278,Művész út,47.495845,18.982385,048278,,,,2
048279,"Széchenyi-hegy, Gyermekvasút",47.495231,18.979453,048279,,,,2
048302,Diósdi út,47.433749,18.925165,048302,,,,2
048303,Diósdi út,47.433937,18.924939,048303,,,,2
048304,Liliom utca,47.431485,18.927729,048304,,,,2
048305,Liliom utca,47.430955,18.928340,048305,,,,2
048471,Pasaréti tér,47.523609,18.994082,048471,,,,1
048505,Szent István Bazilika,47.500141,19.054665,048505,,,,1
048506,Szent István Bazilika,47.500273,19.055025,048506,,,,1
048519,"Rákospalota, Kossuth utca",47.568485,19.125534,048519,,,,1
048536,Lehel tér M,47.517759,19.060445,048536,,,,2
048621,"Széna tér, tároló",47.508681,19.027708,048621,,,,1
049170,Szent István utca H,47.391189,19.114442,049170,,,,2
049171,Zsellér dűlő,47.391331,19.118615,049171,,,,1
049172,Gyáli-patak,47.394741,19.116818,049172,,,,1
049174,"Soroksár, Kertvárosi körút",47.413022,19.136121,049174,,,,1
049180,Dagály fürdő,47.539082,19.061698,049180,,,,1
049182,Úszódaru utca,47.546042,19.069019,049182,,,,2
049183,Úszódaru utca,47.545655,19.068673,049183,,,,1
049186,Kalotaszeg utca,47.459241,19.040896,049186,,,,1
049597,BudaPart,47.468442,19.057157,049597,,,,1
049784,Clark Ádám tér,47.498870,19.040187,049784,,,,1
049785,Clark Ádám tér,47.499328,19.040161,049785,,,,1
049903,Mansfeld Péter park,47.517064,19.033228,049903,,,,1
049914,Sörgyár,47.491859,19.144405,049914,,,,2
050003,Cinkota H,47.519950,19.220289,050003,,,,1
050129,Csapó utca,47.440861,19.161363,050129,,,,2
050173,Lincoln út,47.415985,19.243460,050173,,,,1
050174,Lőrinci utca,47.416591,19.241515,050174,,,,1
050175,"Pestszentlőrinc, sorompó",47.421948,19.238393,050175,,,,1
050176,"Pestszentlőrinc, sorompó",47.422092,19.238301,050176,,,,1
050177,"Ganztelep, Mednyánszky utca",47.423195,19.234780,050177,,,,1
050181,Ferihegy vasútállomás,47.436741,19.222565,F03810,,merged,MERGED_F03810,2
050184,Lőrinci piac,47.443206,19.184417,050184,,,,1
050185,"Vecsés, Market Central Ferihegy",47.416816,19.251653,050185,,merged,MERGED_050185,1
050186,"Vecsés, Market Central Ferihegy",47.416816,19.251653,050185,,merged,MERGED_050185,1
050187,"Vecsés, Fő út",47.418376,19.249486,050187,,,,1
050274,Kossuth Lajos tér M (Szemere utca),47.506380,19.051004,050274,,,,1
050279,Lomnici utca,47.436482,19.019517,050279,,,,1
056123,Borsmenta utca,47.572507,19.010551,056123,,,,1
056124,Citronella utca,47.571696,19.006817,056124,,,,1
056161,Csillaghegy H [1],47.584340,19.044241,056161,,,,2
056162,Mészkő utca [2],47.579492,19.034353,056162,,,,2
056163,Mészkő utca [2],47.579402,19.034313,056163,,,,2
056165,Öregbükk utca [3],47.581020,19.030165,056165,,,,2
056166,Öregbükk utca [3],47.580966,19.030085,056166,,,,2
056168,Cserszömörce utca [4],47.582575,19.026017,056168,,,,2
056169,Cserszömörce utca [4],47.582485,19.025937,056169,,,,2
056173,Mácsonya utca [5],47.583753,19.023757,056173,,,,2
056175,Saroglya utca [6],47.584391,19.022254,056175,,,,2
056178,Csillaghegy H [1],47.584637,19.043138,056178,,,,2
056187,Muzsla utca [11],47.580911,19.024130,056187,,,,2
056188,Óarany utca [10],47.579094,19.023387,056188,,,,2
056189,Ipacsfa utca,47.429408,19.168648,056189,,,,1
056202,Kelenföld vasútállomás,47.464403,19.020674,056202,1,,,2
056204,Szent Gellért tér - Műegyetem,47.483441,19.053806,056204,1,,,2
056206,Keleti pályaudvar,47.500301,19.081213,056206,1,,,2
056207,Bikás park,47.464773,19.033395,056207,1,,,2
056209,Újbuda-központ,47.473991,19.046348,056209,1,,,2
056210,Móricz Zsigmond körtér,47.477416,19.047473,056210,1,,,2
056211,Fővám tér,47.486713,19.057096,056211,1,,,2
056212,Kálvin tér,47.489074,19.061480,056212,1,,,2
056213,Rákóczi tér,47.492722,19.071817,056213,1,,,2
056214,II. János Pál pápa tér,47.495300,19.077244,056214,1,,,2
056215,Kelenföld vasútállomás,47.464515,19.019618,056215,,,CS056215,1
056216,Kelenföld vasútállomás,47.464255,19.020587,056216,,,CS056215,1
056217,Bikás park,47.464881,19.032345,056217,,,CS056217,1
056218,Bikás park,47.465022,19.033386,056218,,,CS056217,1
056219,Újbuda-központ,47.472860,19.045954,056219,,,CS056219,1
056220,Újbuda-központ,47.473559,19.046266,056220,,,CS056219,1
056221,Móricz Zsigmond körtér,47.476629,19.047227,056221,,,CS056221,1
056222,Móricz Zsigmond körtér,47.477310,19.047645,056222,,,CS056221,1
056223,Szent Gellért tér - Műegyetem,47.482635,19.054014,056223,,,CS056223,1
056224,Szent Gellért tér - Műegyetem,47.483039,19.055036,056224,,,CS056223,1
056225,Fővám tér,47.485792,19.057571,056225,,,CS056225,1
056226,Fővám tér,47.486169,19.058009,056226,,,CS056225,1
056227,Kálvin tér,47.488903,19.061022,056227,,,CS056227,1
056228,Kálvin tér,47.489245,19.061938,056228,,,CS056227,1
056229,Rákóczi tér,47.492725,19.071361,056229,,,CS056229,1
056230,Rákóczi tér,47.492760,19.072489,056230,,,CS056229,1
056231,II. János Pál pápa tér,47.495593,19.077229,056231,,,CS056231,1
056232,II. János Pál pápa tér,47.496078,19.077707,056232,,,CS056231,1
056233,Keleti pályaudvar,47.500116,19.080722,056233,,,CS056233,1
056234,Keleti pályaudvar,47.500485,19.081704,056234,,,CS056233,1
056379,Metró DBR járműtelep (kapu),47.461404,19.025005,056379,,,,
056427,Deák Ferenc tér M,47.497853,19.054189,056427,,,,1
061136,Rákosszeg park,47.534267,19.103451,061136,,,,2
061188,Kelenföld vasútállomás M,47.464005,19.018706,061188,,,,1
061222,Kelenföld vasútállomás M,47.464364,19.018786,061222,,,,1
061223,Neszmélyi út,47.460812,19.013887,061223,,,,1
061224,Zelk Zoltán út / Neszmélyi út,47.458590,19.018802,061224,,,,1
061225,Hajtány sor,47.455362,19.024440,061225,,,,1
061226,Zelk Zoltán út (Menyecske utca),47.461423,19.018933,061226,,,,2
061227,Zelk Zoltán út (Menyecske utca),47.461046,19.018907,061227,,,,2
061231,Pajkos utca,47.456821,19.030513,061231,,,,1
061232,Pajkos utca,47.457108,19.029134,061232,,,,1
061233,Antalháza,47.436488,19.007202,061233,,,,1
061234,Antalháza,47.436388,19.006937,061234,,,,1
061236,Bíbic utca,47.412085,19.005088,061236,,,,1
061237,Bíbic utca,47.411959,19.005128,061237,,,,1
061238,Nyéki Imre Uszoda,47.450921,19.036880,061238,,,,1
061271,Igmándi utca,47.456585,19.019772,061271,,,,1
061272,Bolygó utca,47.451250,19.016300,061272,,,,1
061273,Bolygó utca,47.450764,19.016208,061273,,,,1
061274,Kelenföld vasútállomás M,47.464094,19.018481,061274,,,,1
061275,Kelenföld vasútállomás M,47.464337,19.018507,061275,,,,1
061277,Kelenföld vasútállomás M,47.464634,19.018494,061277,,,,1
061278,Kelenföld vasútállomás M,47.464751,19.017791,061278,,,,1
061280,Kelenföld vasútállomás M,47.464436,19.018308,061280,,,,1
061286,Szabina út,47.437398,19.013737,061286,,,,1
061349,Keleti pályaudvar M,47.499654,19.083773,061349,,,,1
061350,Keleti pályaudvar M,47.499809,19.083229,061350,,,,1
061351,Keleti pályaudvar M,47.499809,19.083839,061351,,,,1
061352,Keleti pályaudvar M,47.499809,19.084145,061352,,,,1
061367,Puskás Ferenc Stadion M,47.499880,19.107530,061367,,,,1
061368,Munkás utca,47.499918,19.079088,061368,,,,1
061378,Szőlőskert utca,47.502266,18.916790,061378,,,,2
061379,"Maglód, Auchan áruház",47.459226,19.332051,061379,,,,1
062375,Közvágóhíd H,47.467310,19.077928,062375,,,,1
062511,Than Károly utca,47.460867,19.025127,062511,,,,1
062512,Borszéki utca,47.458420,19.023497,062512,,,,1
062513,Jégmadár utca,47.430794,19.005802,062513,,,,1
062514,Jégmadár utca,47.430722,19.005656,062514,,,,1
062515,Török utca,47.412771,18.989465,062515,,,,1
062516,Török utca,47.412851,18.988856,062516,,,,2
062517,Rózsák tere,47.501817,19.075598,062517,,,,1
062518,Március 15. tér,47.491881,19.051747,062518,,,,1
062519,Gazdagréti út,47.462741,19.005126,062519,,,,1
062521,Corvin-negyed M,47.486357,19.068850,062521,,,,1
062522,XIII. utca / Dózsa György út,47.411172,18.993786,062522,,,,1
062604,Nyár utca,47.435693,18.918493,062604,,,,1
062607,Infopark (Pázmány Péter sétány),47.469854,19.062994,062607,,,,1
062608,Magyar tudósok körútja,47.471473,19.063671,062608,,,,1
062620,Egyetemváros - A38 hajóállomás,47.474504,19.063061,062620,,,,1
062621,Egyetemváros - A38 hajóállomás,47.473730,19.063592,062621,,,,1
062622,Magyar tudósok körútja,47.472183,19.063857,062622,,,,1
062726,Régi vám,47.445619,19.005506,062726,,,,1
062815,Szent László utca,47.405382,18.999105,062815,,,,2
062861,Dagály fürdő,47.537850,19.062428,062861,,,,1
062942,Péterfy Sándor utca,47.501636,19.077828,062942,,,,1
062944,Czetz János köz,47.578206,19.049333,062944,,,,1
062946,Attila utca,47.581300,19.049413,062946,,,,1
062948,Mátyás király út,47.586373,19.050024,062948,,,,1
062950,Bercsényi utca,47.585689,19.051181,062950,,,,1
063399,Hulladékhasznosító Mű,47.584113,19.131087,063399,,,,2
064067,Massányi úti lakópark,47.359933,19.028746,064067,,,,1
064074,Massányi úti lakópark,47.360751,19.027739,064074,,,,1
064075,"Szigetszentmiklós, Szabadság utca",47.358296,19.031884,064075,,merged,MERGED_064075,1
064085,Kölcsey Ferenc utca,47.355275,19.034823,064085,,,,1
064087,Lehel utca,47.352883,19.038490,064087,,,,2
064088,Városi Könyvtár,47.344797,19.042250,064088,,,,1
064089,Miklós Pláza,47.341631,19.040874,064089,,,,2
064090,Nap utca (óvoda),47.349535,19.025706,064090,,,,1
064091,Váci Mihály utca (József Attila-telep H),47.338455,19.035846,064091,,,,1
064092,Jókai utca,47.341252,19.035951,064092,,,,1
064093,Akácfa körút,47.344229,19.033185,064093,,,,1
064103,Tamási Áron utca,47.345047,19.028076,064103,,,,1
064104,Miklós tér,47.346953,19.023219,064104,,,,2
064105,Szebeni utca,47.350638,19.016265,064105,,,,2
064106,Nap utca (óvoda),47.349733,19.026063,064106,,,,1
064107,Ősz utca,47.352943,19.024778,064107,,,,1
064108,Ady Endre utca,47.355057,19.025849,064108,,,,2
064170,Ady Endre utca,47.355831,19.027066,064170,,,,2
064175,Ősz utca,47.352386,19.025321,064175,,,,1
064181,Miklós tér,47.347331,19.023126,064181,,,,2
064182,Tamási Áron utca,47.345002,19.028765,064182,,,,2
064183,Akácfa körút,47.343852,19.034217,064183,,,,2
064184,Jókai utca,47.341072,19.035806,064184,,,,2
064185,Váci Mihály utca (József Attila-telep H),47.338590,19.035687,064185,,,,1
064186,Kisfaludy utca,47.342349,19.045001,064186,,,,2
064187,Lehel utca,47.352892,19.038688,064187,,,,2
064188,Kölcsey Ferenc utca,47.354951,19.035366,064188,,,,2
064208,Szépvölgyi köz,47.541088,19.001940,064208,,,,2
064209,Szépvölgyi köz,47.541088,19.001608,064209,,,,2
064210,Fenyőgyöngye,47.540370,19.005647,064210,,,,2
064212,Selyemakác utca,47.543118,18.996373,064212,,,,2
064214,Selyemakác utca,47.543064,18.996307,064214,,,,2
064215,Szépvölgyi dűlő,47.545841,18.992119,064215,,,,2
064239,Leshegy utca,47.376933,19.033996,064239,,,,2
064240,Leshegy utca,47.377059,19.032169,064240,,,,2
064241,Leshegy Ipari Park,47.376071,19.042074,064241,,,,2
064242,Leshegy Ipari Park,47.375567,19.041941,064242,,,,2
064243,Temető utca,47.356175,19.046921,064243,,,,1
064244,Wesselényi utca,47.351111,19.045280,064244,,,,1
064245,Bánki Donát utca,47.360366,19.047556,064245,,,,1
064246,Bányató út,47.367661,19.048324,064246,,,,2
064316,Bányató út,47.366860,19.048032,064316,,,,2
064317,Bánki Donát utca,47.359457,19.047263,064317,,,,2
064318,Temető utca,47.355356,19.045862,064318,,,,1
064319,Wesselényi utca,47.352046,19.045385,064319,,,,2
064377,Ürömhegyi út / Jutas utca [8],47.582618,19.015383,064377,,,,2
066451,Infopark,47.469171,19.059717,066451,,,,1
066452,Infopark,47.469072,19.060500,066452,,,,1
066453,Budafoki út / Dombóvári út,47.469808,19.053655,066453,,,,1
066454,Budafoki út / Dombóvári út,47.469646,19.054384,066454,,,,1
066455,Hauszmann Alajos utca / Szerémi út,47.466536,19.049570,066455,,,,1
066456,Hauszmann Alajos utca / Szerémi út,47.467013,19.049756,066456,,,,1
066457,Hengermalom út / Szerémi út,47.462066,19.048336,066457,,,,1
066458,Hengermalom út / Szerémi út,47.462551,19.048509,066458,,,,1
066459,Etele út / Fehérvári út,47.462389,19.042594,066459,,,,1
066460,Etele út / Fehérvári út,47.462254,19.043363,066460,,,,1
066477,Hunyadi János út tároló,47.431139,19.042741,066477,,,,2
066679,Pallós utca,47.487056,19.291849,066679,,,,2
066680,Pallós utca,47.487030,19.291490,066680,,,,2
066681,Jókai Mór Általános Iskola,47.487994,19.294732,066681,,,,2
066682,Jókai Mór Általános Iskola,47.487878,19.294148,066682,,,,2
066683,Csabamező utca / Göcsej utca,47.486350,19.298268,066683,,,,2
066684,Csabamező utca / Göcsej utca,47.486233,19.297962,066684,,,,2
066685,Ecsedháza köz,47.487963,19.300796,066685,,,,2
066686,Ecsedháza köz,47.488008,19.300770,066686,,,,2
066687,Ede utca,47.490036,19.303089,066687,,,,2
066688,Ede utca,47.490153,19.302983,066688,,,,2
066697,Rés utca,47.480157,19.291817,066697,,,,2
066700,Szárazhegy köz,47.473213,19.300607,066700,,,,2
066701,Nagyszentmiklósi út,47.476203,19.302637,066701,,,,2
066711,Rákoscsaba-Újtelep vasútállomás,47.486549,19.271041,066711,,,,2
066712,Szabadság sugárút / Péceli út,47.482938,19.273347,066712,,,,2
066713,Szabadság sugárút / Péceli út,47.482631,19.274063,066713,,,,2
066714,Nyitány utca,47.480756,19.275992,066714,,,,2
066715,Nyitány utca,47.481053,19.275794,066715,,,,2
066716,Öntöző utca,47.478746,19.278252,066716,,,,2
066717,Öntöző utca,47.478899,19.278173,066717,,,,2
066718,Pestvidék utca,47.476592,19.280644,066718,,,,2
066719,Pestvidék utca,47.476781,19.280538,066719,,,,2
066720,Derkovits tér,47.474869,19.283024,066720,,,,2
066722,Nyeremény utca,47.474462,19.284123,066722,,,,2
066828,Göncz Árpád városközpont M,47.532812,19.065866,066828,,,,1
066856,Pagony utca,47.495101,19.002830,066856,,,,1
066969,Zimonyi utca,47.471748,19.299950,066969,,,,2
067002,Kelenföldi VB pályaudvar,47.463329,19.022895,067002,,,,
067335,Pesti út MOL kút,47.484366,19.227629,067335,,,,2
067490,Orgonás (Rőzse utca),47.507262,19.001183,067490,,,,2
067511,Orgonás (Sárospatak út),47.506109,19.004435,067511,,,,2
067516,Orgonás (Sárospatak út),47.506253,19.004156,067516,,,,2
067622,"Csepel, Csillagtelep",47.409970,19.060354,067622,,,,1
068751,"Páty, autóbusz-forduló",47.511928,18.811387,068751,,,,2
069089,"Margit híd, budai hídfő H",47.515149,19.037569,069089,,,,1
069090,"Margit híd, budai hídfő H",47.515122,19.037158,069090,,,,1
069091,"Margit híd, budai hídfő H",47.514717,19.035936,069091,,,,1
069092,Bem József tér,47.512082,19.039455,069092,,,,1
069093,Bem József tér,47.511776,19.039296,069093,,,,1
069170,Őrjárat utca,47.541288,19.124485,069170,,,,1
069174,Czuczor utca,47.484380,19.060928,069174,,,,1
069181,Tóth István utca,47.537333,19.118612,069181,,,,2
069189,Nagytétény-Diósd vasútállomás,47.397992,18.973294,069189,,,,1
069190,Nagytétény-Diósd vasútállomás,47.397866,18.973003,069190,,,,1
069195,Leshegy Ipari Park,47.375099,19.043252,069195,,,,2
069272,Kvasz András utca,47.472365,19.230190,069272,,,,1
069273,Kvasz András utca,47.472536,19.230151,069273,,,,1
069288,Gyöngyösi utca M tároló,47.549252,19.074679,069288,,,,
069403,Jahn Ferenc Kórház,47.423225,19.132016,069403,,,,1
069664,"Káposztásmegyer, Mogyoródi-patak",47.598572,19.120742,069664,,,,1
070127,Szilaspatak sor,47.588638,19.097738,070127,,,,1
070128,Szilaspatak sor,47.588027,19.096700,070128,,,,1
070997,Széll Kálmán tér M,47.507797,19.023271,070997,,,,1
071236,Szent Gellért tér - Műegyetem M,47.482689,19.054984,071236,,,,1
071262,BudaPart,47.468550,19.057940,071262,,,,1
071659,Nyugati pályaudvar M,47.509906,19.055040,071659,,,,1
072046,Muflon utca,47.570835,18.931411,072046,,,,1
072047,Muflon utca,47.570673,18.931477,072047,,,,1
072851,Maros utcai rendelőintézet,47.503868,19.022427,072851,,,,2
072934,Rudas Gyógyfürdő,47.490110,19.047195,072934,,,,1
072935,Rudas Gyógyfürdő,47.489824,19.047383,072935,,,,1
072938,CS/ Kossuth Lajos utca MOL,47.438084,19.071291,072938,,,,2
073099,Széll Kálmán tér M,47.507815,19.022833,073099,,,,1
073108,Budafoki út / Dombóvári út,47.468757,19.053324,073108,,,,1
073152,Maros utca,47.505504,19.021603,073152,,,,1
073308,Solymár vasútállomás,47.596035,18.949797,073308,,,,1
073426,Művelődési Ház,47.428626,18.913182,073426,,,,1
073427,Művelődési Ház,47.428518,18.912970,073427,,,,1
073471,Nyár utca,47.435378,18.918467,073471,,,,1
073472,Harangláb,47.432072,18.914048,073472,,,,1
073473,Munkácsy Mihály utca (hősi emlékmű),47.430977,18.916119,073473,,,,1
073513,Óceán-árok utca,47.589504,19.101543,073513,,,,1
074021,Kőbányai garázs,47.491018,19.114222,074021,,,,2
074495,Törökbálint Sportközpont,47.440533,18.897203,074495,,,,1
074637,Csáktornya park,47.536739,19.106243,074637,,,,1
074909,Auchan Liget,47.541449,19.246632,074909,,,,1
074935,Nagy Lajos király útja / Czobor utca,47.522800,19.101992,F02865,,merged,MERGED_F02865,1
075119,Nyár utca,47.435414,18.918706,075119,,,,1
075220,Óbudai autóbuszgarázs,47.567996,19.027538,075220,,,,1
075654,Köves út / Szentlőrinci út,47.416057,19.143215,075654,,,,1
075655,Köves út / Szentlőrinci út,47.416264,19.143255,075655,,,,1
075744,Sasadi út,47.465452,19.015814,075744,,,,1
075838,Gimnázium,47.581704,19.105749,075838,,,,1
075839,Gimnázium,47.581326,19.105842,075839,,,,1
076394,Aranyvölgy vasútállomás,47.574371,19.016425,076394,,,,1
076395,Aranyvölgy vasútállomás,47.573795,19.017688,076395,,,,1
076396,Óbuda vasútállomás (Aranyhegyi út),47.570533,19.028308,076396,,,,1
076397,Óbuda vasútállomás (Aranyhegyi út),47.570821,19.027643,076397,,,,1
076398,Aranyvölgy utca 14.,47.571818,19.022819,076398,,,,1
076399,Aranyvölgy utca 14.,47.572132,19.021888,076399,,,,1
077870,"Káposztásmegyer, Szilas-patak",47.578416,19.114426,077870,,,,1
077969,Andor utcai autóbuszgarázs (kapu),47.457701,19.027184,077969,,,,
078004,Széll Kálmán tér M,47.507124,19.023155,078004,,,,1
078064,Nyéki Imre Uszoda,47.451047,19.037609,078064,,,,1
081565,Széll Kálmán tér M,47.507709,19.024363,081565,,,,1
081950,Városház tér,47.426313,19.040040,081950,,,,1
081954,Kacsa utca,47.510526,19.039256,081954,,,,1
082200,Bécsi út / Vörösvári út,47.546762,19.029194,082200,,,,1
082356,Békásmegyer H,47.597853,19.054094,082356,1,,,
082357,Közvágóhíd H,47.467693,19.076536,082357,1,,,
082617,Sasadi út,47.466648,19.016251,082617,,,,1
082622,Tábor utca,47.498114,19.034494,082622,,,,1
082623,Rózsakert utca / Minta utca,47.403236,19.009361,082623,,,,1
083079,Bogáncs utcai autóbuszgarázs (kapu),47.570330,19.134978,083079,,,,
083329,Bartók Béla út 208.,47.417571,18.985325,083329,,,,1
083330,Bartók Béla út 208.,47.416996,18.985724,083330,,,,1
083331,Savoyai Jenő tér (Plébánia utca),47.428795,19.035480,083331,,,,1
083601,Rudas Gyógyfürdő,47.490065,19.047301,083601,,,,
083777,Budafoki Szomszédok Piaca,47.427563,19.039417,083777,,,,1
085723,Lehel tér M (Lehel utca),47.517100,19.062144,085723,,,,
086856,Nagyvárad tér M,47.477735,19.091400,086856,,,,1
086857,Albert Flórián út,47.473538,19.095032,086857,,,,1
086874,Vörösmarty Mihály utca,47.439540,19.164256,086874,,,,1
086875,Kondor Béla sétány,47.438745,19.167224,086875,,,,1
086876,Fiatalság utca,47.437131,19.171052,086876,,,,1
087373,"Soroksár, IKEA áruház",47.412758,19.160912,087373,,,,1
088017,"Napfény utca, MOL töltőállomás",47.458175,19.114884,088017,,,,
088212,"Széna tér, tároló",47.508805,19.027359,088212,,,,1
088453,Ráckeve kocsiszín (kapu),47.174786,18.941798,088453,,,,2
088670,Repülőmúzeum,47.426502,19.262121,088670,,,,1
088969,Kőbánya-Kispest M,47.462778,19.148431,088969,,,,1
089411,Liszt Ferenc Airport 2,47.432737,19.261218,089411,,,,1
089515,Kálvin tér M,47.490613,19.061858,089515,,,,1
089517,Astoria M,47.494145,19.060146,F01013,,merged,MERGED_F01013,1
089725,Nád utca,47.593784,19.047312,089725,,,,1
09001,Batthyány tér,47.506776,19.039318,09001,1,station,,
09001187,Batthyány tér,47.506776,19.039318,09001,,merged,09001,
09001188,Batthyány tér,47.506776,19.039318,09001,,merged,09001,
09001189,Batthyány tér,47.506776,19.039318,09001,,merged,09001,
09019,"Margit híd, budai hídfő",47.515376,19.039380,09019,1,station,,
09019190,"Margit híd, budai hídfő",47.515376,19.039380,09019,,merged,09019,
09019191,"Margit híd, budai hídfő",47.515376,19.039380,09019,,merged,09019,
090370,Lehel tér M,47.518917,19.060989,090370,,,,1
09043,Szépvölgyi út,47.527303,19.040168,09043,1,station,,
09043192,Szépvölgyi út,47.527303,19.040168,09043,,merged,09043,
09043193,Szépvölgyi út,47.527303,19.040168,09043,,merged,09043,
090482,Ötvenhatosok tere,47.507822,19.087004,090482,,,,1
09050,Tímár utca,47.533964,19.044643,09050,1,station,,
09050194,Tímár utca,47.533964,19.044643,09050,,merged,09050,
09050195,Tímár utca,47.533964,19.044643,09050,,merged,09050,
09068,Szentlélek tér,47.539636,19.047161,09068,1,station,,
09068196,Szentlélek tér,47.539636,19.047161,09068,,merged,09068,
09068197,Szentlélek tér,47.539636,19.047161,09068,,merged,09068,
090784,"Solymár, PEVDI",47.596764,18.952940,090784,,,,
09084200,Kaszásdűlő,47.556508,19.045133,09084_09084200,,,,
09084201,Kaszásdűlő,47.557039,19.045372,09084_09084201,,,,
090915,Andor utca / Tétényi út,47.457127,19.033537,090915,,,,1
09100,Aquincum,47.567255,19.048728,09100,1,station,,
09100202,Aquincum,47.567255,19.048728,09100,,merged,09100,
09100203,Aquincum,47.567255,19.048728,09100,,merged,09100,
091120,Szikratávíró utca,47.447322,19.068742,091120,,,,2
09118,Filatorigát,47.551903,19.046243,09118,1,station,,
09118198,Filatorigát,47.551903,19.046243,09118,,merged,09118,
09118199,Filatorigát,47.551903,19.046243,09118,,merged,09118,
091217,Szentlőrinci úti lakótelep,47.416416,19.132111,091217,,,,1
09126,Budakalász,47.616165,19.054920,09126,1,station,,
09126210,Budakalász,47.616165,19.054920,09126,,merged,09126,
09126211,Budakalász,47.616165,19.054920,09126,,merged,09126,
091338,Benczúr utca,47.512428,19.079600,091338,,,,1
09134,Pomáz,47.642749,19.032657,09134,1,station,,
09134217,Pomáz,47.642749,19.032657,09134,,merged,09134,
09134218,Pomáz,47.642749,19.032657,09134,,merged,09134,
09142,Szentendre,47.661038,19.075607,09142,1,station,,
09142221,Szentendre,47.661038,19.075607,09142,,merged,09142,
09142222,Szentendre,47.661038,19.075607,09142,,merged,09142,
09142223,Szentendre,47.661038,19.075607,09142,,merged,09142,
09159,Rómaifürdő,47.575685,19.048568,09159,1,station,,
09159204,Rómaifürdő,47.575685,19.048568,09159,,merged,09159,
09159205,Rómaifürdő,47.575685,19.048568,09159,,merged,09159,
09175206,Csillaghegy,47.585948,19.044932,09175_09175206,,,,
09175207,Csillaghegy,47.586272,19.045078,09175_09175207,,,,
091799,Budafok kocsiszín,47.440398,19.036339,091799,,,,2
091816,Angyalföld vasútállomás,47.550363,19.091315,091816,,,,1
091817,Angyalföld vasútállomás,47.549906,19.090953,091817,,,,1
091821,Angyalföld vasútállomás,47.550037,19.090853,091821,,,,1
09183,Békásmegyer,47.598091,19.054599,09183,1,station,,
09183208,Békásmegyer,47.598091,19.054599,09183,,merged,09183,
09183209,Békásmegyer,47.598091,19.054599,09183,,merged,09183,
09191212,"Budakalász, Lenfonó",47.621692,19.046912,09191_09191212,,,,
09191213,"Budakalász, Lenfonó",47.621863,19.046592,09191_09191213,,,,
09209,Szentistvántelep,47.628802,19.043332,09209,1,station,,
09209214,Szentistvántelep,47.628802,19.043332,09209,,merged,09209,
09209215,Szentistvántelep,47.628802,19.043332,09209,,merged,09209,
09217,Pannóniatelep,47.652191,19.064901,09217,1,station,,
09217219,Pannóniatelep,47.652191,19.064901,09217,,merged,09217,
09217220,Pannóniatelep,47.652191,19.064901,09217,,merged,09217,
09220,Boráros tér,47.479179,19.066433,09220,1,station,,
09220224,Boráros tér,47.479179,19.066433,09220,,merged,09220,
09220225,Boráros tér,47.479179,19.066433,09220,,merged,09220,
09221,Müpa - Nemzeti Színház,47.469554,19.070098,09221,1,station,,
09221226,Müpa - Nemzeti Színház,47.469554,19.070098,09221,,merged,09221,
09221227,Müpa - Nemzeti Színház,47.469554,19.070098,09221,,merged,09221,
09223,Szabadkikötő,47.444476,19.071612,09223,1,station,,
09223228,Szabadkikötő,47.444476,19.071612,09223,,merged,09223,
09223229,Szabadkikötő,47.444476,19.071612,09223,,merged,09223,
09224,Szent Imre tér,47.431322,19.067656,09224,1,station,,
09224230,Szent Imre tér,47.431322,19.067656,09224,,merged,09224,
09224231,Szent Imre tér,47.431322,19.067656,09224,,merged,09224,
09225,Karácsony Sándor utca,47.426802,19.067283,09225,1,station,,
09225232,Karácsony Sándor utca,47.426802,19.067283,09225,,merged,09225,
09225233,Karácsony Sándor utca,47.426802,19.067283,09225,,merged,09225,
09226,Csepel,47.421171,19.065803,09226,1,station,,
09226234,Csepel,47.421171,19.065803,09226,,merged,09226,
09226543,Csepel,47.421171,19.065803,09226,,merged,09226,
093186,Művész út (Óvoda),47.496916,18.984414,093186,,,,
094505,Liszt Ferenc Airport 2,47.432505,19.261230,094505,,,,1
094720,Balzac utca,47.513845,19.058426,094720,,,,1
096830,Jogar utca,47.435122,19.013129,096830,,,,1
096990,"Széchenyi-hegy, Gyermekvasút",47.494304,18.978233,096990,,,,2
096996,"Széchenyi-hegy, Gyermekvasút",47.495204,18.979240,096996,,,,2
096999,"Széchenyi-hegy, Gyermekvasút",47.494232,18.977968,096999,,,,2
097609,Esze Tamás iskola (Rőzse utca),47.508473,18.997708,097609,,,,2
097610,Szent János Kórház,47.508577,19.010026,097610,,,,2
097847,"Mogyoródi út, VB telephely",47.507317,19.113635,097847,,,,
098518,"Diósd, Kaktusz utca",47.415027,18.951217,098518,,,,2
098526,"Diósd, Kaktusz utca",47.414632,18.951447,098526,,,,2
098527,"Törökbálint, Yettel",47.430124,18.935170,098527,,,,1
098531,Farkashegyi repülőtér,47.490163,18.909369,098531,,,,2
098532,Farkashegyi repülőtér,47.489854,18.909282,098532,,,,2
098535,"Budaörs, Gábor Dénes körút",47.470912,18.901412,098535,,,,2
098536,"Budaörs, Gábor Dénes körút",47.471798,18.901757,098536,,,,2
098538,Raktárbázis,47.464025,18.900557,098538,,,,2
098540,Raktárbázis,47.465083,18.900849,098540,,,,2
098674,Baross Gábor utca,47.436562,18.915588,098674,,,,2
098882,"Budakeszi, Tesco áruház",47.499521,18.915018,098882,,,,2
098921,Gubacsi út VB telephely,47.465388,19.086774,098921,,,,
099012,"Budakeszi, Tesco áruház",47.499548,18.915217,099012,,,,1
099343,Kossuth Lajos tér M,47.506003,19.049645,099343,,,,1
099629,Bikás park M,47.463737,19.032434,099629,,,,1
099630,Bikás park M,47.463603,19.033309,099630,,,,1
099631,Bártfai utca,47.464205,19.028906,099631,,,,1
099632,Bártfai utca,47.464088,19.029635,099632,,,,1
099633,Kelenföld vasútállomás M,47.463988,19.023110,099633,,,,1
099634,Kelenföld vasútállomás M,47.464473,19.023388,099634,,,,1
099640,Kőbánya-Kispest M,47.462272,19.150446,099640,,,,
099678,Svábhegy,47.497919,18.989543,099678,,,,1
100605,Szemeretelep vasútállomás,47.444232,19.213265,100605,,,,1
100836,Iglice utca / Jutas utca [9],47.577709,19.022351,100836,,,,2
100837,Kőpor köz / Jutas utca [7],47.580955,19.018321,100837,,,,2
100838,Kőpor köz / Jutas utca [7],47.580658,19.018614,100838,,,,2
101178,"Szigetszentmiklós, városháza",47.348981,19.045586,101178,,,,1
101179,Rákóczi utca,47.348872,19.050468,101179,,,,1
101180,Föveny utca,47.350230,19.057828,101180,,,,2
101181,Béke utca,47.352019,19.062635,101181,,,,2
101182,Teleki utca,47.353773,19.059324,101182,,,,2
101183,Sport utca,47.352092,19.056415,101183,,,,2
101184,Dunaharaszti utca,47.349496,19.053633,101184,,,,1
101185,Sport Vendéglő,47.348252,19.049714,101185,,,,1
102119,"Liszt Ferenc Airport 2, tárolótér",47.428522,19.264289,102119,,,,
102276,Keleti pályaudvar,47.499731,19.082082,102276,1,,,
102283,Wein János út,47.456524,19.071027,102283,,,,2
102568,Rózsakert utca / Minta utca,47.403146,19.010169,102568,,,,1
102569,Rózsakert utca / Minta utca,47.403776,19.011043,102569,,,,1
102825,Örs vezér tere M+H,47.505315,19.136268,102825,,,,2
102861,Nyugati pályaudvar M,47.510757,19.056308,102861,,,,2
103053,Budaörsi lakótelep,47.455747,18.941160,103053,,,,1
103386,Balatoni út / Háros utca,47.433069,19.005455,103386,,,,1
103387,Balatoni út / Háros utca,47.432125,19.005257,103387,,,,1
103388,Balatoni út / Háros utca,47.431890,19.004674,103388,,,,1
103389,Balatoni út / Háros utca,47.431783,19.004926,103389,,,,1
103897,Liget sor,47.488054,19.244774,103897,,,,1
105507,Cargo City,47.430323,19.270282,105507,,,,2
106377,Újpest-városkapu M (Temesvári utca),47.559667,19.082511,106377,,,,2
106390,KÖKI-Regina tároló,47.464388,19.142967,106390,,,,
107474,Kvassay híd,47.457434,19.071039,107474,1,,,2
107799,Budakeszi temető,47.514028,18.922403,107799,,,,2
109234,"Kőbányai út,MOL töltőállomás",47.482459,19.124160,109234,,,,
109518,Vihorlát út,47.389236,19.100043,109518,,,,1
109519,Vihorlát út,47.389119,19.100176,109519,,,,1
109539,"Csillebérc, Gyermekvasút tároló",47.497687,18.963730,109539,,,,
109633,Kőris utca (Korányi Sándor utca),47.486181,19.089231,109633,,,,1
109634,Kőris utca,47.487602,19.088343,109634,,,,1
109635,Elnök utca,47.481314,19.092955,109635,,,,1
109636,Elnök utca,47.481773,19.092809,109636,,,,2
109728,Párkány utca,47.534409,19.062404,109728,,,,1
109729,Dagály utcai lakótelep,47.536545,19.065164,109729,,,,1
109849,Doboz utca,47.602193,19.052910,109849,,,,1
109884,Ludovika Aréna,47.484067,19.090861,109884,,,,2
109885,Ludovika Aréna,47.483995,19.091100,109885,,,,1
109949,"Vágány u., MOL töltőállomás",47.522340,19.081139,109949,,,,
110010,Vérmező tároló,47.499255,19.027605,110010,,,,
110321,"Normafa, látogatóközpont",47.500739,18.967441,110321,,,,1
110322,"Normafa, látogatóközpont",47.500578,18.967972,110322,,,,1
110452,Nemzetközi Posta Kicserélő Központ,47.427629,19.265757,110452,,,,2
110870,Gödöllő H,47.591508,19.357892,110870,,,,1
112336,Horváth utca,47.511545,19.034072,112336,,,,
112880,"Szigetszentmiklós, Szabadság utca",47.358296,19.031884,064075,,merged,MERGED_064075,1
115226,"Szabadkikötő, D épületek",47.451711,19.070971,115226,,,,2
116271,Akadémiaújtelep vasútállomás,47.485166,19.223003,116271,,,,1
116272,Akadémiaújtelep vasútállomás,47.485456,19.221597,116272,,,,1
116310,Patak utca,47.503019,18.921991,116310,,,,1
117450,Őrjárat utca,47.540928,19.125188,117450,,,,1
117574,Cimbalom utca,47.524761,19.023120,117574,,,,1
117920,"Kerepesi út,MOL-töltőállomás",47.499352,19.087437,117920,,,,
118346,Nyugati pályaudvar M (Podmaniczky utca),47.509276,19.058597,F01031,,merged,MERGED_F01031,1
118693,"Budakeszi, Fagyártmánytelep",47.506157,18.914683,118693,,,,2
118694,"Budakeszi, Fagyártmánytelep",47.505990,18.914599,118694,,,,2
118740,"Budakeszi, Vastagtanya",47.501050,18.868534,118740,,,,2
118741,"Budakeszi, Vastagtanya",47.500983,18.868042,118741,,,,2
118744,"Páty, Mézeshegy",47.506910,18.854380,118744,,,,2
118745,"Páty, Mézeshegy",47.506576,18.854798,118745,,,,2
118746,"Páty, Somogyi Béla utca",47.512127,18.839253,118746,,,,1
118747,"Páty, Somogyi Béla utca",47.512159,18.838936,118747,,,,1
118748,"Páty, Telki elágazás",47.515613,18.830954,118748,,,,2
118749,"Páty, Telki elágazás",47.515450,18.830837,118749,,,,1
118750,"Páty, Iskola utca",47.514055,18.826435,118750,,,,1
118751,"Páty, Iskola utca",47.513847,18.826170,118751,,,,1
118752,"Páty, Töki utca",47.512202,18.817374,118752,,,,1
118753,"Páty, Töki utca",47.511661,18.816605,118753,,,,1
118755,"Páty, Újtelep",47.512260,18.810604,118755,,,,1
118757,"Tök, Újmajor",47.530946,18.784344,118757,,,,2
118759,"Zsámbék, PEMÜ",47.544484,18.730781,118759,,,,2
118760,"Zsámbék, Ady Endre utca",47.544056,18.726059,118760,,,,2
118761,"Zsámbék, Ady Endre utca",47.544093,18.726434,118761,,,,1
118762,"Zsámbék, autóbusz-forduló",47.544648,18.719305,118762,,,,2
118763,"Páty, Arany János utca",47.520010,18.833307,118763,,,,2
118765,"Páty, Erdészház",47.525564,18.835935,118765,,,,2
118767,Pátyi elágazás,47.537517,18.843695,118767,,,,2
118769,"Telki, Hóvirág utca",47.542592,18.834193,118769,,,,1
118771,"Telki, Ófalu",47.546663,18.829099,118771,,,,1
118773,"Telki, Rákóczi Ferenc utca",47.548879,18.824546,118773,,,,1
118775,"Telki, Muskátli utca",47.551033,18.819085,118775,,,,1
118777,"Telki, Újfalu",47.552285,18.813638,118777,,,,2
118779,"Budajenő, Posta",47.555968,18.803238,118779,,,,1
118781,"Budajenő, Petőfi Sándor utca",47.558361,18.800246,118781,,,,1
118783,"Perbál, Újmajor",47.580639,18.772306,118783,,,,2
118785,"Perbál, Szervizüzem",47.586925,18.763353,118785,,,,1
118787,"Perbál, Központ",47.590859,18.758826,118787,,,,1
118789,"Perbál, Kisperbál",47.587635,18.752972,118789,,,,1
118792,"Zsámbék, Új iskola",47.554778,18.725852,118792,,,,1
118794,"Zsámbék, Vasbolt",47.550268,18.721214,118794,,,,1
118801,"Zsámbék, Magyar utca 59.",47.545892,18.724514,118801,,,,2
118803,"Tök, Körtvélyes",47.579537,18.744186,118803,,,,2
118805,"Tök, Központi Major",47.575760,18.740075,118805,,,,2
118807,"Tök, Temető",47.570975,18.734058,118807,,,,1
118809,"Tök, Kútvölgy",47.566821,18.731572,118809,,,,1
118811,"Tök, Fő utca 100.",47.560806,18.729505,118811,,,,1
120179,Sport utca,47.456428,18.948227,120179,,,,1
120666,Fehér Holló utca,47.475344,19.085999,120666,,,,1
121946,"Petőfi híd, budai hídfő",47.479019,19.059321,121946,,,,1
123405,Göncz Árpád városkp. M (Esztergomi út),47.535016,19.064326,123405,,,,1
123833,Bécsi út CNG kút,47.560209,19.023994,123833,,,,
123834,Budafoki út CNG kút,47.462026,19.054121,123834,,,,
139866,Harsona utca,47.490264,19.271176,139866,,,,2
139867,Bártfai utca / Diadal utca,47.493155,19.268706,139867,,,,2
139868,Jászapáti utca,47.494849,19.267147,139868,,,,2
139869,Bártfai utca / Ananász utca,47.497076,19.264595,139869,,,,2
139870,Ezüst utca,47.498392,19.262835,139870,,,,2
139871,Kálnok utca,47.500376,19.260069,139871,,,,2
139872,Részes utca,47.499913,19.257387,139872,,,,2
139873,Piski utca (óvoda),47.499170,19.255260,139873,,,,2
139874,Kálnok utca,47.500214,19.260148,139874,,,,2
139875,Ezüst utca,47.498636,19.262345,139875,,,,2
139876,Bártfai utca / Ananász utca,47.497031,19.264502,139876,,,,2
139877,Jászapáti utca,47.494460,19.267374,139877,,,,2
139878,Bártfai utca / Diadal utca,47.492831,19.268851,139878,,,,2
139996,Peregi út,47.478005,19.297167,139996,,,,2
139997,Nemesbük utca,47.479341,19.299190,139997,,,,2
139998,Földeák utca,47.477418,19.302656,139998,,,,2
140234,Rácsos utca (iskola),47.495402,19.274210,140234,,,,1
141891,Sport tér,47.477158,19.295883,141891,,,,2
142232,Pannon út,47.438935,18.932657,142232,,,,1
142233,Pannon út,47.438841,18.933013,142233,,,,1
19720,Közvágóhíd,47.466285,19.077170,19720,1,station,,
19720236,Közvágóhíd,47.466285,19.077170,19720,,merged,19720,
19720237,Közvágóhíd,47.466285,19.077170,19720,,merged,19720,
19726,Kén utca,47.454906,19.086556,19726,1,station,,
19726238,Kén utca,47.454906,19.086556,19726,,merged,19726,
19726239,Kén utca,47.454906,19.086556,19726,,merged,19726,
19729,Pesterzsébet felső,47.438416,19.093425,19729,1,station,,
19729240,Pesterzsébet felső,47.438416,19.093425,19729,,merged,19729,
19729241,Pesterzsébet felső,47.438416,19.093425,19729,,merged,19729,
19730243,Torontál utca,47.423380,19.105036,19730_19730243,,,,
19730244,Torontál utca,47.423002,19.105380,19730_19730244,,,,
19731245,Soroksár felső,47.409938,19.111832,19731_19731245,,,,
19731246,Soroksár felső,47.409380,19.112017,19731_19731246,,,,
19733247,"Soroksár, Hősök tere",47.399538,19.114655,19733_19733247,,,,
19733248,"Soroksár, Hősök tere",47.399080,19.114906,19733_19733248,,,,
19734249,Szent István utca,47.391812,19.114963,19734_19734249,,,,
19734250,Szent István utca,47.391533,19.114857,19734_19734250,,,,
19735251,Millenniumtelep,47.379898,19.104976,19735_19735251,,,,
19735252,Millenniumtelep,47.379584,19.104817,19735_19735252,,,,
19736,Dunaharaszti felső,47.366371,19.092656,19736,1,station,,
19736253,Dunaharaszti felső,47.366371,19.092656,19736,,merged,19736,
19736254,Dunaharaszti felső,47.366371,19.092656,19736,,merged,19736,
19737,Szigetszentmiklós,47.344207,19.050242,19737,1,station,,
19737257,Szigetszentmiklós,47.344207,19.050242,19737,,merged,19737,
19737258,Szigetszentmiklós,47.344207,19.050242,19737,,merged,19737,
19739,Dunaharaszti külső,47.359892,19.086130,19739,1,station,,
19739255,Dunaharaszti külső,47.359892,19.086130,19739,,merged,19739,
19739256,Dunaharaszti külső,47.359892,19.086130,19739,,merged,19739,
19739643,Dunaharaszti külső,47.359892,19.086130,19739,,merged,19739,
19742,József Attila-telep,47.337095,19.034336,19742,1,station,,
19742259,József Attila-telep,47.337095,19.034336,19742,,merged,19742,
19742260,József Attila-telep,47.337095,19.034336,19742,,merged,19742,
19743,Szigetszentmiklós alsó,47.336444,19.019615,19743,1,station,,
19743261,Szigetszentmiklós alsó,47.336444,19.019615,19743,,merged,19743,
19743262,Szigetszentmiklós alsó,47.336444,19.019615,19743,,merged,19743,
19745,Szigetszentmiklós-Gyártelep,47.333635,19.003776,19745,1,station,,
19745263,Szigetszentmiklós-Gyártelep,47.333635,19.003776,19745,,merged,19745,
19745264,Szigetszentmiklós-Gyártelep,47.333635,19.003776,19745,,merged,19745,
19750,Szigethalom,47.330041,18.993868,19750,1,station,,
19750265,Szigethalom,47.330041,18.993868,19750,,merged,19750,
19750266,Szigethalom,47.330041,18.993868,19750,,merged,19750,
19751,Szigethalom alsó,47.321368,18.983529,19751,1,station,,
19751267,Szigethalom alsó,47.321368,18.983529,19751,,merged,19751,
19751268,Szigethalom alsó,47.321368,18.983529,19751,,merged,19751,
19752,Tököl,47.313477,18.974254,19752,1,station,,
19752269,Tököl,47.313477,18.974254,19752,,merged,19752,
19752270,Tököl,47.313477,18.974254,19752,,merged,19752,
19760,Szigetcsép,47.270231,18.956263,19760,1,station,,
19760271,Szigetcsép,47.270231,18.956263,19760,,merged,19760,
19760272,Szigetcsép,47.270231,18.956263,19760,,merged,19760,
19778,Szigetszentmárton-Szigetújfalu,47.227924,18.946067,19778,1,station,,
19778273,Szigetszentmárton-Szigetújfalu,47.227924,18.946067,19778,,merged,19778,
19784,Horgásztanyák,47.213582,18.952953,19784,1,station,,
19784274,Horgásztanyák,47.213582,18.952953,19784,,merged,19784,
19785,Angyalisziget,47.199808,18.945066,19785,1,station,,
19785275,Angyalisziget,47.199808,18.945066,19785,,merged,19785,
19786,Ráckeve,47.175605,18.941796,19786,1,station,,
19786276,Ráckeve,47.175605,18.941796,19786,,merged,19786,
19786277,Ráckeve,47.175605,18.941796,19786,,merged,19786,
19795,Örs vezér tere,47.503585,19.137192,19795,1,station,,
19795278,Örs vezér tere,47.503585,19.137192,19795,,merged,19795,
19795279,Örs vezér tere,47.503585,19.137192,19795,,merged,19795,
19795280,Örs vezér tere,47.503585,19.137192,19795,,merged,19795,
19798,Rákosfalva,47.505067,19.151378,19798,1,station,,
19798281,Rákosfalva,47.505067,19.151378,19798,,merged,19798,
19798282,Rákosfalva,47.505067,19.151378,19798,,merged,19798,
19810,Nagyicce,47.507017,19.167690,19810,1,station,,
19810283,Nagyicce,47.507017,19.167690,19810,,merged,19810,
19810284,Nagyicce,47.507017,19.167690,19810,,merged,19810,
19823,Sashalom,47.508952,19.178647,19823,1,station,,
19823285,Sashalom,47.508952,19.178647,19823,,merged,19823,
19823286,Sashalom,47.508952,19.178647,19823,,merged,19823,
19824,"Mátyásföld, repülőtér",47.511857,19.194054,19824,1,station,,
19824287,"Mátyásföld, repülőtér",47.511857,19.194054,19824,,merged,19824,
19824288,"Mátyásföld, repülőtér",47.511857,19.194054,19824,,merged,19824,
19825,"Mátyásföld, Imre utca",47.513546,19.199582,19825,1,station,,
19825289,"Mátyásföld, Imre utca",47.513546,19.199582,19825,,merged,19825,
19825290,"Mátyásföld, Imre utca",47.513546,19.199582,19825,,merged,19825,
19826,Mátyásföld alsó,47.515986,19.207456,19826,1,station,,
19826291,Mátyásföld alsó,47.515986,19.207456,19826,,merged,19826,
19826292,Mátyásföld alsó,47.515986,19.207456,19826,,merged,19826,
19828,Cinkota,47.519435,19.217338,19828,1,station,,
19828293,Cinkota,47.519435,19.217338,19828,,merged,19828,
19828294,Cinkota,47.519435,19.217338,19828,,merged,19828,
19828295,Cinkota,47.519435,19.217338,19828,,merged,19828,
19828296,Cinkota,47.519435,19.217338,19828,,merged,19828,
19828641,Cinkota,47.519435,19.217338,19828,,merged,19828,
19828642,Cinkota,47.519435,19.217338,19828,,merged,19828,
19829,Cinkota alsó,47.526364,19.220986,19829,1,station,,
19829297,Cinkota alsó,47.526364,19.220986,19829,,merged,19829,
19830,Árpádföld,47.532979,19.212554,19830,1,station,,
19830298,Árpádföld,47.532979,19.212554,19830,,merged,19830,
19831,Szabadságtelep,47.537404,19.206185,19831,1,station,,
19831299,Szabadságtelep,47.537404,19.206185,19831,,merged,19831,
19836,Csömör,47.545049,19.225058,19836,1,station,,
19836301,Csömör,47.545049,19.225058,19836,,merged,19836,
19841,Ilonatelep,47.526627,19.229403,19841,1,station,,
19841302,Ilonatelep,47.526627,19.229403,19841,,merged,19841,
19841303,Ilonatelep,47.526627,19.229403,19841,,merged,19841,
19843,"Kistarcsa, kórház",47.539065,19.249034,19843,1,station,,
19843304,"Kistarcsa, kórház",47.539065,19.249034,19843,,merged,19843,
19843305,"Kistarcsa, kórház",47.539065,19.249034,19843,,merged,19843,
19845,Kistarcsa,47.545832,19.259801,19845,1,station,,
19845306,Kistarcsa,47.545832,19.259801,19845,,merged,19845,
19845307,Kistarcsa,47.545832,19.259801,19845,,merged,19845,
19847,Zsófialiget,47.548442,19.264069,19847,1,station,,
19847308,Zsófialiget,47.548442,19.264069,19847,,merged,19847,
19847309,Zsófialiget,47.548442,19.264069,19847,,merged,19847,
19848,Kerepes,47.553433,19.271377,19848,1,station,,
19848310,Kerepes,47.553433,19.271377,19848,,merged,19848,
19848311,Kerepes,47.553433,19.271377,19848,,merged,19848,
19848551,Kerepes,47.553433,19.271377,19848,,merged,19848,
19849,Szilasliget,47.568488,19.275036,19849,1,station,,
19849312,Szilasliget,47.568488,19.275036,19849,,merged,19849,
19849313,Szilasliget,47.568488,19.275036,19849,,merged,19849,
19851,Mogyoród,47.595970,19.271560,19851,1,station,,
19851314,Mogyoród,47.595970,19.271560,19851,,merged,19851,
19851315,Mogyoród,47.595970,19.271560,19851,,merged,19851,
19865,Szentjakab,47.597338,19.290352,19865,1,station,,
19865317,Szentjakab,47.597338,19.290352,19865,,merged,19865,
19865318,Szentjakab,47.597338,19.290352,19865,,merged,19865,
19867,"Gödöllő, Erzsébet park",47.595072,19.340771,19867,1,station,,
19867319,"Gödöllő, Erzsébet park",47.595072,19.340771,19867,,merged,19867,
19867320,"Gödöllő, Erzsébet park",47.595072,19.340771,19867,,merged,19867,
19868321,"Gödöllő, Szabadság tér",47.597505,19.347599,19868_19868321,,,,
19868322,"Gödöllő, Szabadság tér",47.597827,19.348252,19868_19868322,,,,
19869,"Gödöllő, Palotakert",47.598525,19.356661,19869,1,station,,
19869323,"Gödöllő, Palotakert",47.598525,19.356661,19869,,merged,19869,
19869324,"Gödöllő, Palotakert",47.598525,19.356661,19869,,merged,19869,
19870,Gödöllő,47.593341,19.357787,19870,1,station,,
19870325,Gödöllő,47.593341,19.357787,19870,,merged,19870,
19870326,Gödöllő,47.593341,19.357787,19870,,merged,19870,
211800,Tárcsás utca,47.406508,19.114787,211800,,,,
CS056215,Kelenföld vasútállomás,47.464299,19.019717,CS056215,1,,,
CS056217,Bikás park,47.465005,19.033383,CS056217,1,,,
CS056219,Újbuda-központ,47.473931,19.046312,CS056219,1,,,
CS056221,Móricz Zsigmond körtér,47.477362,19.047272,CS056221,1,,,
CS056223,Szent Gellért tér - Műegyetem,47.483245,19.054249,CS056223,1,,,
CS056225,Fővám tér,47.486401,19.057320,CS056225,1,,,
CS056227,Kálvin tér,47.489628,19.061654,CS056227,1,,,
CS056229,Rákóczi tér,47.492722,19.071817,CS056229,1,,,
CS056231,II. János Pál pápa tér,47.495300,19.077244,CS056231,1,,,
CS056233,Keleti pályaudvar,47.500090,19.081794,CS056233,1,,,
CSF00062,Batthyány tér,47.506363,19.039112,CSF00062,1,,,
CSF00093,Déli pályaudvar,47.500375,19.024802,CSF00093,1,,,
CSF00897,Újpest-Városkapu,47.559009,19.079416,CSF00897,1,,,
CSF00912,Újpest-központ,47.560429,19.089926,CSF00912,1,,,
CSF00936,Nyugati pályaudvar,47.510768,19.056111,CSF00936,1,,,
CSF00952,Ferenciek tere,47.493136,19.055890,CSF00952,1,,,
CSF00954,Deák Ferenc tér,47.497771,19.054510,CSF00954,1,,,
CSF00956,Arany János utca,47.503063,19.054531,CSF00956,1,,,
CSF00958,Kossuth Lajos tér,47.505475,19.046620,CSF00958,1,,,
CSF00964,Vörösmarty tér,47.496803,19.050579,CSF00964,1,,,
CSF00996,Bajcsy-Zsilinszky út,47.499876,19.055326,CSF00996,1,,,
CSF01018,Astoria,47.494364,19.060024,CSF01018,1,,,
CSF01079,Opera,47.502243,19.058873,CSF01079,1,,,
CSF01085,Oktogon,47.505083,19.063168,CSF01085,1,,,
CSF01092,Vörösmarty utca,47.507212,19.066322,CSF01092,1,,,
CSF01095,Kodály körönd,47.509234,19.069341,CSF01095,1,,,
CSF01100,Bajza utca,47.511320,19.072494,CSF01100,1,,,
CSF01102,Hősök tere,47.514255,19.076844,CSF01102,1,,,
CSF01188,Corvin-negyed,47.485869,19.069984,CSF01188,1,,,
CSF01232,Semmelweis Klinikák,47.482834,19.079176,CSF01232,1,,,
CSF01252,Nagyvárad tér,47.479161,19.089542,CSF01252,1,,,
CSF01282,Népliget,47.475518,19.098694,CSF01282,1,,,
CSF01291,Blaha Lujza tér,47.497097,19.070595,CSF01291,1,,,
CSF01324,Puskás Ferenc Stadion,47.500266,19.105988,CSF01324,1,,,
CSF01493,Ecseri út,47.470893,19.110921,CSF01493,1,,,
CSF01541,Határ út,47.465394,19.126672,CSF01541,1,,,
CSF01543,Kőbánya-Kispest [D],47.463437,19.148625,CSF01543,1,,,
CSF01742,Pillangó utca,47.501310,19.120057,CSF01742,1,,,
CSF01749,Örs vezér tere,47.503187,19.136309,CSF01749,1,,,
CSF01878,Pöttyös utca,47.468420,19.117361,CSF01878,1,,,
CSF02480,Széll Kálmán tér,47.506982,19.024828,CSF02480,1,,,
CSF02613,Lehel tér,47.518118,19.060547,CSF02613,1,,,
CSF02637,Göncz Árpád városközpont,47.532722,19.066804,CSF02637,1,,,
CSF02680,Dózsa György út,47.524585,19.063323,CSF02680,1,,,
CSF02682,Forgách utca,47.539243,19.069512,CSF02682,1,,,
CSF02684,Gyöngyösi utca,47.548889,19.073265,CSF02684,1,,,
CSF02696,Széchenyi fürdő,47.517498,19.080980,CSF02696,1,,,
CSF02887,Mexikói út,47.519611,19.091089,CSF02887,1,,,
F00001,Mihály utca,47.486079,19.034561,F00001,,,,2
F00002,Zsolt utca,47.490396,19.030555,F00002,,,,1
F00003,Zsolt utca,47.490540,19.030395,F00003,,,,1
F00004,Mészáros utca,47.488273,19.031033,F00004,,,,1
F00005,Mészáros utca,47.488606,19.031564,F00005,,,,1
F00006,Sánc utca,47.490088,19.036191,F00006,,,,1
F00007,Sánc utca,47.489542,19.035491,F00007,,,,2
F00008,Sánc utca,47.489632,19.035717,F00008,,,,1
F00009,Sánc utca,47.489425,19.035836,F00009,,,,1
F00010,Szirtes út,47.487663,19.036460,F00010,,,,2
F00011,Szirtes út,47.488238,19.037084,F00011,,,,1
F00012,Búsuló Juhász (Citadella),47.485594,19.039551,F00012,,,,2
F00013,Királyhágó utca,47.494901,19.023055,F00013,,,,1
F00014,Királyhágó utca,47.494460,19.023945,F00014,,,,1
F00015,Királyhágó utca,47.494839,19.023732,F00015,,,,1
F00016,Királyhágó utca,47.495591,19.023011,F00016,,,,1
F00017,Királyhágó utca,47.496088,19.023479,F00017,,,,1
F00018,Királyhágó utca,47.495669,19.023612,F00018,,,,1
F00019,Nagyenyed utca,47.498029,19.023858,F00019,,,,1
F00020,Nagyenyed utca,47.498335,19.024011,F00020,,,,1
F00021,Déli pályaudvar M,47.499614,19.023793,F00021,,,,2
F00022,Déli pályaudvar M,47.499686,19.024208,F00022,,,,2
F00023,Déli pályaudvar M,47.500001,19.023809,F00023,,,,1
F00024,Déli pályaudvar M,47.500848,19.024021,F00024,,,,1
F00025,Déli pályaudvar M,47.501106,19.024177,F00025,,,,1
F00026,Déli pályaudvar M,47.500801,19.024990,F00026,,,,2
F00027,Déli pályaudvar M,47.501071,19.024671,F00027,,,,2
F00028,Körmöci utca,47.504372,19.024988,F00028,,,,1
F00029,Körmöci utca,47.504138,19.024989,F00029,,,,1
F00030,Mátray utca,47.505965,19.028598,F00030,,,,1
F00031,Mátray utca,47.505866,19.027988,F00031,,,,1
F00032,Széna tér,47.507979,19.029261,F00032,,,,1
F00033,Széna tér,47.507782,19.028184,F00033,,,,1
F00034,Fazekas utca,47.508268,19.034372,F00034,,,,1
F00035,Fazekas utca,47.507989,19.034133,F00035,,,,1
F00036,Fazekas utca,47.507773,19.033443,F00036,,,,1
F00045,Donáti utca,47.501307,19.036072,F00045,,,,1
F00047,Clark Ádám tér,47.498312,19.039816,F00047,,,,1
F00048,Clark Ádám tér,47.498195,19.040028,F00048,,,,1
F00049,Clark Ádám tér,47.497671,19.040663,F00049,,,,1
F00051,Halász utca,47.502260,19.039815,F00051,,,,1
F00052,Halász utca,47.501784,19.040028,F00052,,,,1
F00053,Halász utca,47.502448,19.039759,F00053,,,,1
F00056,Halász utca,47.501764,19.039029,F00056,,,,1
F00057,Batthyány tér M+H,47.506002,19.039456,F00057,,,,1
F00059,Batthyány tér M+H,47.505885,19.038023,F00059,,,,1
F00062,Batthyány tér,47.507412,19.036739,F00062,,,CSF00062,2
F00063,Batthyány tér,47.506826,19.038103,F00063,,,CSF00062,2
F00064,Batthyány tér M+H,47.506613,19.038872,F00066,,merged,MERGED_F00066,1
F00065,Batthyány tér M+H (Bem rakpart),47.507423,19.039270,F00065,,,,1
F00066,Batthyány tér M+H,47.506613,19.038872,F00066,,merged,MERGED_F00066,1
F00067,Batthyány tér M+H,47.505876,19.039005,F00067,,,,1
F00068,Mária tér,47.506738,19.034794,F00068,,,,1
F00069,Bécsi kapu tér,47.504553,19.030683,F00069,,,,1
F00070,Bécsi kapu tér,47.504751,19.030324,F00070,,,,1
F00071,Szentháromság tér,47.501324,19.033710,F00071,,,,1
F00072,Szentháromság tér,47.501306,19.033896,F00072,,,,1
F00073,Dísz tér,47.499398,19.035990,F00073,,,,1
F00074,Dísz tér,47.498950,19.036113,F00074,,,,1
F00075,Dísz tér,47.498599,19.036073,F00075,,,,1
F00076,"Palota út, gyorslift",47.495182,19.038529,F00076,,,,2
F00077,Dózsa György tér,47.494732,19.037720,F00077,,,,1
F00078,Dózsa György tér,47.494426,19.037932,F00078,,,,1
F00079,Dózsa György tér,47.493860,19.037494,F00079,,,,1
F00080,Dózsa György tér,47.493770,19.038224,F00080,,,,2
F00081,Dózsa György tér,47.493698,19.038463,F00081,,,,2
F00082,Alagút utca,47.497853,19.032981,F00082,,,,1
F00083,Krisztina tér,47.496899,19.033406,F00083,,,,1
F00084,Alagút utca,47.496567,19.034415,F00084,,,,1
F00085,Krisztina tér,47.496881,19.032117,F00085,,,,2
F00086,Krisztina tér,47.496621,19.032847,F00086,,,,2
F00087,Krisztina tér,47.496899,19.032742,F00087,,,,1
F00088,Mikó utca,47.499237,19.030844,F00088,,,,1
F00089,Mikó utca,47.498365,19.028997,F00089,,,,2
F00090,Mikó utca,47.498374,19.028747,F00090,,,,2
F00091,Korlát utca,47.501917,19.027405,F00091,,,,1
F00092,Korlát utca,47.501719,19.027432,F00092,,,,1
F00093,Déli pályaudvar,47.499373,19.024769,F00093,,,CSF00093,2
F00094,Déli pályaudvar,47.500450,19.024604,F00094,,,CSF00093,2
F00095,Győri út,47.495234,19.025205,F00095,,,,2
F00096,Győri út,47.495198,19.025855,F00096,,,,2
F00097,Ág utca,47.495675,19.029451,F00097,,,,1
F00098,Ág utca,47.495451,19.029425,F00098,,,,1
F00099,Róka utca,47.494164,19.028934,F00099,,,,1
F00100,Naphegy tér,47.493445,19.032478,F00100,,,,1
F00101,Várkert Bazár,47.493114,19.043161,F00101,,,,1
F00102,Szarvas tér,47.492492,19.042355,F00102,,,,1
F00103,Döbrentei tér,47.491486,19.043705,F00103,,,,1
F00104,Döbrentei tér,47.491243,19.043612,F00104,,,,1
F00105,Döbrentei tér,47.491737,19.043373,F00105,,,,1
F00106,Várkert Bazár,47.493536,19.044169,F00106,,,,1
F00107,Várkert Bazár,47.493186,19.044315,F00107,,,,1
F00108,Rudas Gyógyfürdő,47.489840,19.047208,F00108,,,,1
F00110,Döbrentei tér,47.490074,19.044767,F00110,,,,1
F00111,Rudas Gyógyfürdő,47.489273,19.046916,F00111,,,,1
F00112,Rudas Gyógyfürdő,47.489075,19.046903,F00112,,,,1
F00113,Döbrentei tér,47.490182,19.046863,F00113,,,,2
F00114,Kapisztrán tér,47.504157,19.029302,F00114,,,,1
F00115,Szanatórium utca (Vadaspark),47.520539,18.938771,F00115,,,,1
F00116,Szanatórium utca (Vadaspark),47.520206,18.938865,F00116,,,,1
F00117,Kökörcsin utca,47.577030,18.938375,F00117,,,,1
F00118,Kökörcsin utca,47.576041,18.938842,F00118,,,,2
F00119,Fenyőgyöngye,47.540316,19.006138,F00119,,,,2
F00120,Nyereg út,47.537279,19.014083,F00120,,,,1
F00121,Nyereg út,47.537593,19.013551,F00121,,,,1
F00122,Pál-völgyi cseppkőbarlang,47.533160,19.016503,F00122,,,,1
F00123,Pál-völgyi cseppkőbarlang,47.532881,19.016755,F00123,,,,2
F00124,Csalit utca,47.529481,19.016412,F00124,,,,1
F00125,Csalit utca,47.529338,19.017116,F00125,,,,1
F00126,Virág Benedek utca,47.530635,19.027062,F00126,,,,1
F00127,Szépvölgyi út,47.530770,19.026424,F00127,,,,2
F00128,Folyondár utca,47.529466,19.030077,F00128,,,,1
F00129,Folyondár utca (Szépvölgyi út),47.529215,19.030475,F00129,,,,1
F00130,Ürömi utca,47.528172,19.033304,F00130,,,,1
F00131,Ürömi utca,47.528010,19.033357,F00131,,,,1
F00132,Kolosy tér,47.527722,19.036650,F00132,,,,1
F00133,Kolosy tér,47.527821,19.036863,F00133,,,,1
F00135,Kolosy tér,47.527983,19.037660,F00135,,,,1
F00136,Kolosy tér,47.527687,19.037474,F00136,,,,1
F00137,Kolosy tér,47.528586,19.039001,F00137,,,,1
F00138,Kolosy tér,47.526913,19.038204,F00138,,,,2
F00141,Margitsziget / Margit híd,47.514717,19.042521,F00141,,,,1
F00142,Margitsziget / Margit híd,47.514439,19.044327,F00142,,,,1
F00143,Margitsziget / Margit híd,47.515986,19.043995,F00143,,,,1
F00144,Margitsziget / Margit híd,47.515779,19.043743,F00144,,,,1
F00146,Margitsziget / Margit híd,47.514629,19.043264,F00146,,,,2
F00147,Labanc út,47.518988,18.981633,F00147,,,,1
F00148,Labanc út,47.518970,18.980982,F00148,,,,1
F00149,Dénes utca,47.521633,18.968511,F00149,,,,1
F00150,Dénes utca,47.521624,18.967940,F00150,,,,1
F00151,Baba utca,47.524228,19.013255,F00151,,,,1
F00152,Baba utca,47.524237,19.012936,F00152,,,,1
F00153,Garas utca,47.511548,19.019184,F00153,,,,1
F00154,Garas utca,47.511242,19.019875,F00154,,,,1
F00155,Városmajor,47.509568,19.014008,F00155,,,,1
F00156,Városmajor,47.509595,19.013212,F00156,,,,2
F00157,Városmajor,47.509550,19.013012,F00157,,,,2
F00158,Városmajor,47.509531,19.013698,F00158,,,,1
